[
    {
        "subver": "\/Shibetoshi:1.14.6(4ca7f6f79c7396c07ce9c4f3208c3647dbe52ede0e22c4b9f37b53086771dd7c)\/",
        "lat": "38.733732",
        "lon": "-9.183197",
        "city": "Lisbon",
        "country": "Portugal",
        "ipinfo": null
    },
    {
        "subver": "\/Shibetoshi:1.14.4(DoOnlyGoodEveryday)\/",
        "lat": "50.1025",
        "lon": "8.6299",
        "city": "Frankfurt am Main",
        "country": "DE",
        "ipinfo": "AS14061 DigitalOcean, LLC"
    },
    {
        "subver": "\/Shibetoshi:1.14.0\/",
        "lat": "50.9333",
        "lon": "6.9500",
        "city": "K\u00f6ln",
        "country": "DE",
        "ipinfo": "AS24940 Hetzner Online GmbH"
    },
    {
        "subver": "",
        "lat": "37.3924",
        "lon": "-121.9623",
        "city": "Santa Clara",
        "country": "US",
        "ipinfo": "AS20473 The Constant Company, LLC"
    },
    {
        "subver": "\/Shibetoshi:1.14.5\/",
        "lat": "36.0811",
        "lon": "-115.2169",
        "city": "Las Vegas",
        "country": "US",
        "ipinfo": "AS53667 FranTech Solutions"
    },
    {
        "subver": "\/Shibetoshi:1.14.6\/",
        "lat": "60.3540",
        "lon": "24.9794",
        "city": "Tuusula",
        "country": "FI",
        "ipinfo": "AS24940 Hetzner Online GmbH"
    },
    {
        "subver": "\/Shibetoshi:1.14.6\/",
        "lat": "50.4779",
        "lon": "12.3713",
        "city": "Falkenstein",
        "country": "DE",
        "ipinfo": "AS24940 Hetzner Online GmbH"
    },
    {
        "subver": "\/Shibetoshi:1.14.5\/",
        "lat": "42.7261",
        "lon": "-87.7828",
        "city": "Racine",
        "country": "US",
        "ipinfo": "AS21554 Wisconsin CyberLynk Network, Inc."
    },
    {
        "subver": "\/Shibetoshi:1.14.2\/",
        "lat": "49.1166",
        "lon": "10.7597",
        "city": "Gunzenhausen",
        "country": "DE",
        "ipinfo": "AS24940 Hetzner Online GmbH"
    },
    {
        "subver": "\/Shibetoshi:1.14.3\/",
        "lat": "40.8344",
        "lon": "-74.1377",
        "city": "Clifton",
        "country": "US",
        "ipinfo": "AS14061 DigitalOcean, LLC"
    },
    {
        "subver": "\/Shibetoshi:1.14.6\/",
        "lat": "50.4779",
        "lon": "12.3713",
        "city": "Falkenstein",
        "country": "DE",
        "ipinfo": "AS24940 Hetzner Online GmbH"
    },
    {
        "subver": "\/Shibetoshi:1.14.4\/",
        "lat": "52.3740",
        "lon": "4.8897",
        "city": "Amsterdam",
        "country": "NL",
        "ipinfo": "AS14061 DigitalOcean, LLC"
    },
    {
        "subver": "\/Shibetoshi:1.14.6\/",
        "lat": "9.9333",
        "lon": "-84.0833",
        "city": "San Jos\u00e9",
        "country": "CR",
        "ipinfo": "AS262149 Sistemas Fratec S.A."
    },
    {
        "subver": "\/Shibetoshi:1.14.6\/",
        "lat": "-33.7256",
        "lon": "151.0737",
        "city": "Sydney",
        "country": "AU",
        "ipinfo": "AS4764 Aussie Broadband"
    },
    {
        "subver": "\/Shibetoshi:1.14.5\/",
        "lat": "49.1166",
        "lon": "10.7597",
        "city": "Gunzenhausen",
        "country": "DE",
        "ipinfo": "AS24940 Hetzner Online GmbH"
    },
    {
        "subver": "\/Shibetoshi:1.14.5\/",
        "lat": "53.3331",
        "lon": "-6.2489",
        "city": "Dublin",
        "country": "IE",
        "ipinfo": "AS30900 Sternforth Ltd."
    },
    {
        "subver": "\/Shibetoshi:1.14.7\/",
        "lat": "40.7618",
        "lon": "-73.3293",
        "city": "Deer Park",
        "country": "US",
        "ipinfo": "AS701 Verizon Business"
    },
    {
        "subver": "\/Shibetoshi:1.14.2\/",
        "lat": "57.1522",
        "lon": "65.5272",
        "city": "Tyumen",
        "country": "RU",
        "ipinfo": "AS13259 Delta Telesystems Ltd."
    },
    {
        "subver": "\/Shibetoshi:1.14.6\/",
        "lat": "51.1854",
        "lon": "6.4417",
        "city": "M\u00f6nchengladbach",
        "country": "DE",
        "ipinfo": "AS51167 Contabo GmbH"
    },
    {
        "subver": "\/Shibetoshi:1.14.6\/",
        "lat": "42.8700",
        "lon": "74.5900",
        "city": "Bishkek",
        "country": "KG",
        "ipinfo": "AS59684 Hoster kg, Ltd."
    },
    {
        "subver": "\/Shibetoshi:1.14.6(bitcore)\/",
        "lat": "43.6330",
        "lon": "-116.2951",
        "city": "Boise",
        "country": "US",
        "ipinfo": "AS11492 CABLE ONE, INC."
    },
    {
        "subver": "\/Shibetoshi:1.14.2\/",
        "lat": "49.4075",
        "lon": "11.1649",
        "city": "N\u00fcrnberg",
        "country": "DE",
        "ipinfo": "AS51167 Contabo GmbH"
    },
    {
        "subver": "\/Shibetoshi:1.14.6\/",
        "lat": "51.2686",
        "lon": "6.8100",
        "city": "D\u00fcsseldorf",
        "country": "DE",
        "ipinfo": "AS24961 myLoc managed IT AG"
    },
    {
        "subver": "\/Shibetoshi:1.14.2\/",
        "lat": "49.5085",
        "lon": "4.1325",
        "city": "Saint-Germainmont",
        "country": "FR",
        "ipinfo": "AS12322 Free SAS"
    },
    {
        "subver": "\/Shibetoshi:1.14.7\/",
        "lat": "60.3540",
        "lon": "24.9794",
        "city": "Tuusula",
        "country": "FI",
        "ipinfo": "AS24940 Hetzner Online GmbH"
    },
    {
        "subver": "\/Shibetoshi:1.14.6\/",
        "lat": "52.1366",
        "lon": "5.0588",
        "city": "Maarssen",
        "country": "NL",
        "ipinfo": "AS60144 3W Infra B.V."
    },
    {
        "subver": "\/Shibetoshi:1.14.7\/",
        "lat": "60.8004",
        "lon": "21.4084",
        "city": "Uusikaupunki",
        "country": "FI",
        "ipinfo": "AS39194 Vakka-Suomen Puhelin Oy"
    },
    {
        "subver": "\/Shibetoshi:1.14.6\/",
        "lat": "52.5244",
        "lon": "13.4105",
        "city": "Berlin",
        "country": "DE",
        "ipinfo": "AS6724 Strato AG"
    },
    {
        "subver": "\/Shibetoshi:1.14.7\/",
        "lat": "49.1166",
        "lon": "10.7597",
        "city": "Gunzenhausen",
        "country": "DE",
        "ipinfo": "AS213230 Hetzner Online GmbH"
    },
    {
        "subver": "\/Shibetoshi:1.14.2\/",
        "lat": "48.8534",
        "lon": "2.3488",
        "city": "Paris",
        "country": "FR",
        "ipinfo": "AS12876 ONLINE S.A.S."
    },
    {
        "subver": "\/Shibetoshi:1.14.3\/",
        "lat": "1.2897",
        "lon": "103.8501",
        "city": "Singapore",
        "country": "SG",
        "ipinfo": "AS16509 Amazon.com, Inc."
    },
    {
        "subver": "\/Shibetoshi:1.14.2\/",
        "lat": "49.1166",
        "lon": "10.7597",
        "city": "Gunzenhausen",
        "country": "DE",
        "ipinfo": "AS24940 Hetzner Online GmbH"
    },
    {
        "subver": "\/Shibetoshi:1.14.7\/",
        "lat": "50.9333",
        "lon": "6.9500",
        "city": "K\u00f6ln",
        "country": "DE",
        "ipinfo": "AS24940 Hetzner Online GmbH"
    },
    {
        "subver": "\/Shibetoshi:1.14.3\/",
        "lat": "33.6126",
        "lon": "-92.0646",
        "city": "Warren",
        "country": "US",
        "ipinfo": "AS64225 Vyve Broadband"
    },
    {
        "subver": "\/Shibetoshi:1.14.5\/",
        "lat": "55.7522",
        "lon": "37.6156",
        "city": "Moscow",
        "country": "RU",
        "ipinfo": "AS3175 Filanco LLC"
    },
    {
        "subver": "\/Shibetoshi:1.14.6\/",
        "lat": "43.7001",
        "lon": "-79.4163",
        "city": "Toronto",
        "country": "CA",
        "ipinfo": "AS14061 DigitalOcean, LLC"
    },
    {
        "subver": "\/Shibetoshi:1.14.5\/",
        "lat": "19.0728",
        "lon": "72.8826",
        "city": "Mumbai",
        "country": "IN",
        "ipinfo": "AS16509 Amazon.com, Inc."
    },
    {
        "subver": "\/Shibetoshi:1.14.5\/",
        "lat": "22.2783",
        "lon": "114.1747",
        "city": "Hong Kong",
        "country": "HK",
        "ipinfo": "AS16509 Amazon.com, Inc."
    },
    {
        "subver": "\/Shibetoshi:1.14.0\/",
        "lat": "50.6942",
        "lon": "3.1746",
        "city": "Roubaix",
        "country": "FR",
        "ipinfo": "AS16276 OVH SAS"
    },
    {
        "subver": "\/Shibetoshi:1.14.6\/",
        "lat": "35.6895",
        "lon": "139.6917",
        "city": "Tokyo",
        "country": "JP",
        "ipinfo": "AS16509 Amazon.com, Inc."
    },
    {
        "subver": "\/Shibetoshi:1.14.6\/",
        "lat": "1.3215",
        "lon": "103.6957",
        "city": "Singapore",
        "country": "SG",
        "ipinfo": "AS14061 DigitalOcean, LLC"
    },
    {
        "subver": "\/Shibetoshi:1.14.4\/",
        "lat": "47.9790",
        "lon": "-122.2021",
        "city": "Everett",
        "country": "US",
        "ipinfo": "AS20055 Wholesail networks LLC"
    },
    {
        "subver": "\/Shibetoshi:1.14.6\/",
        "lat": "48.1925",
        "lon": "11.6429",
        "city": "Unterf\u00f6hring",
        "country": "DE",
        "ipinfo": "AS24940 Hetzner Online GmbH"
    },
    {
        "subver": "\/Shibetoshi:1.14.5\/",
        "lat": "33.4484",
        "lon": "-112.0740",
        "city": "Phoenix",
        "country": "US",
        "ipinfo": "AS22612 Namecheap, Inc."
    },
    {
        "subver": "\/Shibetoshi:1.14.2\/",
        "lat": "57.1522",
        "lon": "65.5272",
        "city": "Tyumen",
        "country": "RU",
        "ipinfo": "AS12389 PJSC Rostelecom"
    },
    {
        "subver": "\/Shibetoshi:1.14.6\/",
        "lat": "49.1166",
        "lon": "10.7597",
        "city": "Gunzenhausen",
        "country": "DE",
        "ipinfo": "AS24940 Hetzner Online GmbH"
    },
    {
        "subver": "\/Shibetoshi:1.14.2\/",
        "lat": "52.9263",
        "lon": "-1.1915",
        "city": "Nottingham",
        "country": "GB",
        "ipinfo": "AS5089 Virgin Media Limited"
    },
    {
        "subver": "",
        "lat": "30.3471",
        "lon": "-97.7609",
        "city": "Austin",
        "country": "US",
        "ipinfo": "AS7018 AT&T Services, Inc."
    },
    {
        "subver": "\/Shibetoshi:1.14.4\/",
        "lat": "34.0534",
        "lon": "-118.1271",
        "city": "Monterey Park",
        "country": "US",
        "ipinfo": "AS20115 Charter Communications"
    },
    {
        "subver": "\/Shibetoshi:1.14.7\/",
        "lat": "34.7865",
        "lon": "-76.8591",
        "city": "Newport",
        "country": "US",
        "ipinfo": "AS11426 Charter Communications Inc"
    },
    {
        "subver": "\/Shibetoshi:1.14.6\/",
        "lat": "49.1952",
        "lon": "16.6080",
        "city": "Brno",
        "country": "CZ",
        "ipinfo": "AS35613 NetDataComm, s.r.o."
    },
    {
        "subver": "\/Shibetoshi:1.14.3\/",
        "lat": "34.0522",
        "lon": "-118.2437",
        "city": "Los Angeles",
        "country": "US",
        "ipinfo": "AS29802 HIVELOCITY, Inc."
    },
    {
        "subver": "\/Shibetoshi:1.14.5\/",
        "lat": "51.5085",
        "lon": "-0.1257",
        "city": "London",
        "country": "GB",
        "ipinfo": "AS16276 OVH SAS"
    },
    {
        "subver": "\/Shibetoshi:1.14.5\/",
        "lat": "39.9075",
        "lon": "116.3972",
        "city": "Beijing",
        "country": "CN",
        "ipinfo": "AS37963 Hangzhou Alibaba Advertising Co.,Ltd."
    },
    {
        "subver": "\/Shibetoshi:1.14.5\/",
        "lat": "37.5483",
        "lon": "-121.9886",
        "city": "Fremont",
        "country": "US",
        "ipinfo": "AS63949 Linode, LLC"
    },
    {
        "subver": "\/Shibetoshi:1.14.6\/",
        "lat": "51.2686",
        "lon": "6.8100",
        "city": "D\u00fcsseldorf",
        "country": "DE",
        "ipinfo": "AS24961 myLoc managed IT AG"
    },
    {
        "subver": "\/Shibetoshi:1.14.4\/",
        "lat": "60.3540",
        "lon": "24.9794",
        "city": "Tuusula",
        "country": "FI",
        "ipinfo": "AS24940 Hetzner Online GmbH"
    },
    {
        "subver": "\/Shibetoshi:1.14.6\/",
        "lat": "52.5244",
        "lon": "13.4105",
        "city": "Berlin",
        "country": "DE",
        "ipinfo": "AS24940 Hetzner Online GmbH"
    },
    {
        "subver": "\/Shibetoshi:1.14.6\/",
        "lat": "51.5085",
        "lon": "-0.1257",
        "city": "London",
        "country": "GB",
        "ipinfo": "AS16509 Amazon.com, Inc."
    },
    {
        "subver": "\/Shibetoshi:1.14.4\/",
        "lat": "49.1166",
        "lon": "10.7597",
        "city": "Gunzenhausen",
        "country": "DE",
        "ipinfo": "AS24940 Hetzner Online GmbH"
    },
    {
        "subver": "\/Shibetoshi:1.14.4\/",
        "lat": "49.1166",
        "lon": "10.7597",
        "city": "Gunzenhausen",
        "country": "DE",
        "ipinfo": "AS24940 Hetzner Online GmbH"
    },
    {
        "subver": "\/Shibetoshi:1.14.2\/",
        "lat": "48.8534",
        "lon": "2.3488",
        "city": "Paris",
        "country": "FR",
        "ipinfo": "AS16276 OVH SAS"
    },
    {
        "subver": "\/Shibetoshi:1.14.5\/",
        "lat": "1.2897",
        "lon": "103.8501",
        "city": "Singapore",
        "country": "SG",
        "ipinfo": "AS45102 Alibaba (US) Technology Co., Ltd."
    },
    {
        "subver": "\/Shibetoshi:1.14.6\/",
        "lat": "30.4202",
        "lon": "-9.5982",
        "city": "Agadir",
        "country": "MA",
        "ipinfo": "AS6939 Hurricane Electric LLC"
    },
    {
        "subver": "\/Shibetoshi:1.14.6\/",
        "lat": "40.7143",
        "lon": "-74.0060",
        "city": "New York City",
        "country": "US",
        "ipinfo": "AS6128 Cablevision Systems Corp."
    },
    {
        "subver": "\/Shibetoshi:1.14.3\/",
        "lat": "52.6958",
        "lon": "6.1944",
        "city": "Meppel",
        "country": "NL",
        "ipinfo": "AS47583 Hostinger International Limited"
    },
    {
        "subver": "\/Shibetoshi:1.14.7\/",
        "lat": "48.8534",
        "lon": "2.3488",
        "city": "Paris",
        "country": "FR",
        "ipinfo": "AS16276 OVH SAS"
    },
    {
        "subver": "",
        "lat": "32.9482",
        "lon": "-96.7297",
        "city": "Richardson",
        "country": "US",
        "ipinfo": "AS63949 Linode, LLC"
    },
    {
        "subver": "\/Shibetoshi:1.14.6\/",
        "lat": "51.8256",
        "lon": "1.1421",
        "city": "Little Clacton",
        "country": "GB",
        "ipinfo": "AS13037 Zen Internet Ltd"
    },
    {
        "subver": "\/Shibetoshi:1.14.0\/",
        "lat": "48.8534",
        "lon": "2.3488",
        "city": "Paris",
        "country": "FR",
        "ipinfo": "AS16276 OVH SAS"
    },
    {
        "subver": "\/Shibetoshi:1.14.6\/",
        "lat": "-37.8011",
        "lon": "144.9854",
        "city": "Melbourne",
        "country": "AU",
        "ipinfo": "AS4764 Aussie Broadband"
    },
    {
        "subver": "\/Shibetoshi:1.14.6\/",
        "lat": "48.8473",
        "lon": "2.3245",
        "city": "Paris",
        "country": "FR",
        "ipinfo": "AS12322 Free SAS"
    },
    {
        "subver": "\/Shibetoshi:1.14.5\/",
        "lat": "35.5365",
        "lon": "-78.2844",
        "city": "Selma",
        "country": "US",
        "ipinfo": "AS11426 Charter Communications Inc"
    },
    {
        "subver": "\/Shibetoshi:1.14.2\/",
        "lat": "1.2897",
        "lon": "103.8501",
        "city": "Singapore",
        "country": "SG",
        "ipinfo": "AS16509 Amazon.com, Inc."
    },
    {
        "subver": "\/Shibetoshi:1.14.6\/",
        "lat": "40.5793",
        "lon": "-74.4115",
        "city": "South Plainfield",
        "country": "US",
        "ipinfo": "AS701 Verizon Business"
    },
    {
        "subver": "\/Shibetoshi:1.14.6\/",
        "lat": "60.3540",
        "lon": "24.9794",
        "city": "Tuusula",
        "country": "FI",
        "ipinfo": "AS24940 Hetzner Online GmbH"
    },
    {
        "subver": "\/Shibetoshi:1.14.3\/",
        "lat": "52.0810",
        "lon": "7.3054",
        "city": "Horstmar",
        "country": "DE",
        "ipinfo": "AS24940 Hetzner Online GmbH"
    },
    {
        "subver": "\/Shibetoshi:1.14.0\/",
        "lat": "49.1166",
        "lon": "10.7597",
        "city": "Gunzenhausen",
        "country": "DE",
        "ipinfo": "AS24940 Hetzner Online GmbH"
    },
    {
        "subver": "\/Shibetoshi:1.14.6\/",
        "lat": "53.5507",
        "lon": "9.9930",
        "city": "Hamburg",
        "country": "DE",
        "ipinfo": "AS45012 dogado GmbH"
    },
    {
        "subver": "",
        "lat": "34.4222",
        "lon": "-117.3025",
        "city": "Hesperia",
        "country": "US",
        "ipinfo": "AS20115 Charter Communications"
    },
    {
        "subver": "\/Shibetoshi:1.14.3\/",
        "lat": "34.0559",
        "lon": "-118.2666",
        "city": "Los Angeles",
        "country": "US",
        "ipinfo": "AS29802 HIVELOCITY, Inc."
    },
    {
        "subver": "\/Shibetoshi:1.14.3\/",
        "lat": "51.4722",
        "lon": "11.2953",
        "city": "Sangerhausen",
        "country": "DE",
        "ipinfo": "AS24940 Hetzner Online GmbH"
    },
    {
        "subver": "\/Shibetoshi:1.14.3\/",
        "lat": "49.4542",
        "lon": "11.0775",
        "city": "N\u00fcrnberg",
        "country": "DE",
        "ipinfo": "AS24940 Hetzner Online GmbH"
    },
    {
        "subver": "\/Shibetoshi:1.14.6\/",
        "lat": "41.1578",
        "lon": "-80.0887",
        "city": "Grove City",
        "country": "US",
        "ipinfo": "AS27364 Armstrong"
    },
    {
        "subver": "\/Shibetoshi:1.14.0\/",
        "lat": "49.0523",
        "lon": "14.4343",
        "city": "Hlubok\u00e1 nad Vltavou",
        "country": "CZ",
        "ipinfo": "AS197019 WEDOS Internet, a.s."
    },
    {
        "subver": "\/Shibetoshi:1.14.2\/",
        "lat": "60.3540",
        "lon": "24.9794",
        "city": "Tuusula",
        "country": "FI",
        "ipinfo": "AS24940 Hetzner Online GmbH"
    },
    {
        "subver": "\/Shibetoshi:1.14.6\/",
        "lat": "9.9333",
        "lon": "-84.0833",
        "city": "San Jos\u00e9",
        "country": "CR",
        "ipinfo": "AS262149 Sistemas Fratec S.A."
    },
    {
        "subver": "\/Shibetoshi:1.14.3\/",
        "lat": "48.2085",
        "lon": "16.3721",
        "city": "Vienna",
        "country": "AT",
        "ipinfo": "AS44133 IPAX OG"
    },
    {
        "subver": "\/Shibetoshi:1.14.6\/",
        "lat": "45.5040",
        "lon": "-73.5747",
        "city": "Montr\u00e9al",
        "country": "CA",
        "ipinfo": "AS16276 OVH SAS"
    },
    {
        "subver": "\/Shibetoshi:1.14.7\/",
        "lat": "41.2563",
        "lon": "-95.9404",
        "city": "Omaha",
        "country": "US",
        "ipinfo": "AS22773 Cox Communications Inc."
    },
    {
        "subver": "\/Shibetoshi:1.14.6\/",
        "lat": "29.6516",
        "lon": "-82.3248",
        "city": "Gainesville",
        "country": "US",
        "ipinfo": "AS22773 Cox Communications Inc."
    },
    {
        "subver": "\/Shibetoshi:1.14.6\/",
        "lat": "49.9808",
        "lon": "36.2527",
        "city": "Kharkiv",
        "country": "UA",
        "ipinfo": "AS13188 CONTENT DELIVERY NETWORK LTD"
    },
    {
        "subver": "\/Shibetoshi:1.14.6\/",
        "lat": "52.5238",
        "lon": "13.4428",
        "city": "Berlin",
        "country": "DE",
        "ipinfo": "AS6724 Strato AG"
    },
    {
        "subver": "\/Shibetoshi:1.14.7\/",
        "lat": "41.0887",
        "lon": "-74.0135",
        "city": "Nanuet",
        "country": "US",
        "ipinfo": "AS29757 Webline Services Inc"
    },
    {
        "subver": "",
        "lat": "29.7633",
        "lon": "-95.3633",
        "city": "Houston",
        "country": "US",
        "ipinfo": "AS7922 Comcast Cable Communications, LLC"
    },
    {
        "subver": "\/Shibetoshi:1.14.6\/",
        "lat": "49.1166",
        "lon": "10.7597",
        "city": "Gunzenhausen",
        "country": "DE",
        "ipinfo": "AS24940 Hetzner Online GmbH"
    },
    {
        "subver": "\/Shibetoshi:1.14.6\/",
        "lat": "19.0728",
        "lon": "72.8826",
        "city": "Mumbai",
        "country": "IN",
        "ipinfo": "AS16509 Amazon.com, Inc."
    },
    {
        "subver": "\/Shibetoshi:1.14.2\/",
        "lat": "50.6942",
        "lon": "3.1746",
        "city": "Roubaix",
        "country": "FR",
        "ipinfo": "AS16276 OVH SAS"
    },
    {
        "subver": "\/Shibetoshi:1.14.2\/",
        "lat": "50.9803",
        "lon": "11.3290",
        "city": "Weimar",
        "country": "DE",
        "ipinfo": "AS24940 Hetzner Online GmbH"
    },
    {
        "subver": "\/Shibetoshi:1.14.5\/",
        "lat": "40.8043",
        "lon": "-74.0121",
        "city": "North Bergen",
        "country": "US",
        "ipinfo": "AS14061 DigitalOcean, LLC"
    },
    {
        "subver": "\/Shibetoshi:1.14.3\/",
        "lat": "50.1155",
        "lon": "8.6842",
        "city": "Frankfurt am Main",
        "country": "DE",
        "ipinfo": "AS24940 Hetzner Online GmbH"
    },
    {
        "subver": "\/Shibetoshi:1.14.6\/",
        "lat": "41.6941",
        "lon": "44.8337",
        "city": "Tbilisi",
        "country": "GE",
        "ipinfo": "AS16010 Magticom Ltd."
    },
    {
        "subver": "\/Shibetoshi:1.14.6\/",
        "lat": "49.1166",
        "lon": "10.7597",
        "city": "Gunzenhausen",
        "country": "DE",
        "ipinfo": "AS24940 Hetzner Online GmbH"
    },
    {
        "subver": "\/Shibetoshi:1.14.6\/",
        "lat": "49.4075",
        "lon": "11.1649",
        "city": "N\u00fcrnberg",
        "country": "DE",
        "ipinfo": "AS51167 Contabo GmbH"
    },
    {
        "subver": "\/Shibetoshi:1.14.6\/",
        "lat": "47.3667",
        "lon": "8.5500",
        "city": "Z\u00fcrich",
        "country": "CH",
        "ipinfo": "AS13030 Init7 (Switzerland) Ltd."
    },
    {
        "subver": "\/Shibetoshi:1.14.5\/",
        "lat": "49.4542",
        "lon": "11.0775",
        "city": "N\u00fcrnberg",
        "country": "DE",
        "ipinfo": "AS24940 Hetzner Online GmbH"
    },
    {
        "subver": "\/Shibetoshi:1.14.5\/",
        "lat": "60.3540",
        "lon": "24.9794",
        "city": "Tuusula",
        "country": "FI",
        "ipinfo": "AS24940 Hetzner Online GmbH"
    },
    {
        "subver": "\/Shibetoshi:1.14.4\/",
        "lat": "38.6273",
        "lon": "-90.1979",
        "city": "St. Louis",
        "country": "US",
        "ipinfo": "AS30083 GoDaddy.com, LLC"
    },
    {
        "subver": "\/Shibetoshi:1.14.6\/",
        "lat": "50.4779",
        "lon": "12.3713",
        "city": "Falkenstein",
        "country": "DE",
        "ipinfo": "AS24940 Hetzner Online GmbH"
    },
    {
        "subver": "\/Shibetoshi:1.14.6\/",
        "lat": "24.1469",
        "lon": "120.6839",
        "city": "Taichung",
        "country": "TW",
        "ipinfo": "AS3462 Data Communication Business Group"
    },
    {
        "subver": "\/Shibetoshi:1.14.5\/",
        "lat": "42.7261",
        "lon": "-87.7828",
        "city": "Racine",
        "country": "US",
        "ipinfo": "AS21554 Wisconsin CyberLynk Network, Inc."
    },
    {
        "subver": "\/Shibetoshi:1.14.7\/",
        "lat": "30.4521",
        "lon": "-97.7688",
        "city": "Austin",
        "country": "US",
        "ipinfo": "AS7018 AT&T Services, Inc."
    },
    {
        "subver": "\/Shibetoshi:1.14.3\/",
        "lat": "52.6958",
        "lon": "6.1944",
        "city": "Meppel",
        "country": "NL",
        "ipinfo": "AS47583 Hostinger International Limited"
    },
    {
        "subver": "\/Shibetoshi:1.14.3\/",
        "lat": "51.7946",
        "lon": "11.7401",
        "city": "Bernburg",
        "country": "DE",
        "ipinfo": "AS24940 Hetzner Online GmbH"
    },
    {
        "subver": "\/Shibetoshi:1.14.3\/",
        "lat": "50.0348",
        "lon": "22.6765",
        "city": "Jaros\u0142aw",
        "country": "PL",
        "ipinfo": "AS60806 ZICOM NEXT SPOLKA Z OGRANICZONA ODPOWIEDZIALNOSCIA"
    },
    {
        "subver": "\/Shibetoshi:1.14.5\/",
        "lat": "55.7522",
        "lon": "37.6156",
        "city": "Moscow",
        "country": "RU",
        "ipinfo": "AS3175 Filanco LLC"
    },
    {
        "subver": "\/Shibetoshi:1.14.6\/",
        "lat": "32.7230",
        "lon": "-97.4483",
        "city": "Fort Worth",
        "country": "US",
        "ipinfo": "AS7018 AT&T Services, Inc."
    },
    {
        "subver": "\/Shibetoshi:1.14.5\/",
        "lat": "51.5085",
        "lon": "-0.1257",
        "city": "London",
        "country": "GB",
        "ipinfo": "AS42831 UK Dedicated Servers Limited"
    },
    {
        "subver": "\/Shibetoshi:1.14.6\/",
        "lat": "37.3924",
        "lon": "-121.9623",
        "city": "Santa Clara",
        "country": "US",
        "ipinfo": "AS20473 The Constant Company, LLC"
    },
    {
        "subver": "\/Shibetoshi:1.14.6\/",
        "lat": "22.2783",
        "lon": "114.1747",
        "city": "Hong Kong",
        "country": "HK",
        "ipinfo": "AS4760 HKT Limited"
    },
    {
        "subver": "\/Shibetoshi:1.14.6\/",
        "lat": "47.4829",
        "lon": "8.7021",
        "city": "Winterthur",
        "country": "CH",
        "ipinfo": "AS13030 Init7 (Switzerland) Ltd."
    },
    {
        "subver": "\/Shibetoshi:1.14.6\/",
        "lat": "41.4297",
        "lon": "-97.3684",
        "city": "Columbus",
        "country": "US",
        "ipinfo": "AS11427 Charter Communications Inc"
    },
    {
        "subver": "\/Shibetoshi:1.14.5\/",
        "lat": "35.2635",
        "lon": "-120.6509",
        "city": "San Luis Obispo",
        "country": "US",
        "ipinfo": "AS20115 Charter Communications"
    },
    {
        "subver": "\/Shibetoshi:1.14.5\/",
        "lat": "34.0522",
        "lon": "-118.2437",
        "city": "Los Angeles",
        "country": "US",
        "ipinfo": "AS46844 Sharktech"
    },
    {
        "subver": "\/Shibetoshi:1.14.6\/",
        "lat": "37.3924",
        "lon": "-121.9623",
        "city": "Santa Clara",
        "country": "US",
        "ipinfo": "AS20473 The Constant Company, LLC"
    },
    {
        "subver": "\/Shibetoshi:1.14.5\/",
        "lat": "50.7317",
        "lon": "7.0575",
        "city": "Bonn",
        "country": "DE",
        "ipinfo": "AS24940 Hetzner Online GmbH"
    },
    {
        "subver": "\/Shibetoshi:1.10.0\/",
        "lat": "52.5244",
        "lon": "13.4105",
        "city": "Berlin",
        "country": "DE",
        "ipinfo": "AS24940 Hetzner Online GmbH"
    },
    {
        "subver": "",
        "lat": "39.3093",
        "lon": "-77.2972",
        "city": "Green Valley",
        "country": "US",
        "ipinfo": "AS7922 Comcast Cable Communications, LLC"
    },
    {
        "subver": "\/Shibetoshi:1.14.7\/",
        "lat": "45.4382",
        "lon": "9.1805",
        "city": "Milan",
        "country": "IT",
        "ipinfo": "AS30722 Vodafone Italia S.p.A."
    },
    {
        "subver": "\/Shibetoshi:1.14.5\/",
        "lat": "52.3740",
        "lon": "4.8897",
        "city": "Amsterdam",
        "country": "NL",
        "ipinfo": "AS49453 Global Layer B.V."
    },
    {
        "subver": "\/Shibetoshi:1.14.6\/",
        "lat": "50.1025",
        "lon": "8.6299",
        "city": "Frankfurt am Main",
        "country": "DE",
        "ipinfo": "AS14061 DigitalOcean, LLC"
    },
    {
        "subver": "\/Shibetoshi:1.14.2\/",
        "lat": "49.1166",
        "lon": "10.7597",
        "city": "Gunzenhausen",
        "country": "DE",
        "ipinfo": "AS24940 Hetzner Online GmbH"
    },
    {
        "subver": "\/Shibetoshi:1.14.0\/",
        "lat": "49.1166",
        "lon": "10.7597",
        "city": "Gunzenhausen",
        "country": "DE",
        "ipinfo": "AS24940 Hetzner Online GmbH"
    },
    {
        "subver": "\/Shibetoshi:1.14.5\/",
        "lat": "36.3884",
        "lon": "-86.4467",
        "city": "Gallatin",
        "country": "US",
        "ipinfo": "AS7018 AT&T Services, Inc."
    },
    {
        "subver": "\/Shibetoshi:1.14.6\/",
        "lat": "35.6895",
        "lon": "139.6917",
        "city": "Tokyo",
        "country": "JP",
        "ipinfo": "AS16509 Amazon.com, Inc."
    },
    {
        "subver": "\/Shibetoshi:1.14.6\/",
        "lat": "51.1651",
        "lon": "4.1437",
        "city": "Sint-Niklaas",
        "country": "BE",
        "ipinfo": "AS6848 Telenet BVBA"
    },
    {
        "subver": "\/Shibetoshi:1.14.6\/",
        "lat": "1.2897",
        "lon": "103.8501",
        "city": "Singapore",
        "country": "SG",
        "ipinfo": "AS45102 Alibaba (US) Technology Co., Ltd."
    },
    {
        "subver": "\/Shibetoshi:1.14.2\/",
        "lat": "52.5244",
        "lon": "13.4105",
        "city": "Berlin",
        "country": "DE",
        "ipinfo": "AS24940 Hetzner Online GmbH"
    },
    {
        "subver": "\/Shibetoshi:1.14.7\/",
        "lat": "38.8951",
        "lon": "-77.0364",
        "city": "Washington",
        "country": "US",
        "ipinfo": "AS213230 Hetzner Online GmbH"
    },
    {
        "subver": "\/Shibetoshi:1.14.7(meow)\/",
        "lat": "42.4529",
        "lon": "-75.0638",
        "city": "Oneonta",
        "country": "US",
        "ipinfo": "AS11351 Charter Communications Inc"
    },
    {
        "subver": "\/Shibetoshi:1.14.4\/",
        "lat": "38.0608",
        "lon": "-97.9298",
        "city": "Hutchinson",
        "country": "US",
        "ipinfo": "AS27425 IdeaTek Telcom, LLC"
    },
    {
        "subver": "\/Shibetoshi:1.14.6\/",
        "lat": "1.2897",
        "lon": "103.8501",
        "city": "Singapore",
        "country": "SG",
        "ipinfo": "AS16509 Amazon.com, Inc."
    },
    {
        "subver": "\/Shibetoshi:1.14.5\/",
        "lat": "33.4484",
        "lon": "-112.0740",
        "city": "Phoenix",
        "country": "US",
        "ipinfo": "AS22612 Namecheap, Inc."
    },
    {
        "subver": "\/Shibetoshi:1.14.5\/",
        "lat": "40.8043",
        "lon": "-74.0121",
        "city": "North Bergen",
        "country": "US",
        "ipinfo": "AS14061 DigitalOcean, LLC"
    },
    {
        "subver": "\/Shibetoshi:1.14.4(DoOnlyGoodEveryday)\/",
        "lat": "50.1025",
        "lon": "8.6299",
        "city": "Frankfurt am Main",
        "country": "DE",
        "ipinfo": "AS14061 DigitalOcean, LLC"
    },
    {
        "subver": "\/Shibetoshi:1.14.4\/",
        "lat": "32.7157",
        "lon": "-117.1647",
        "city": "San Diego",
        "country": "US",
        "ipinfo": "AS19165 Webpass Inc."
    },
    {
        "subver": "\/Shibetoshi:1.14.5\/",
        "lat": "44.9550",
        "lon": "-93.3829",
        "city": "Minneapolis",
        "country": "US",
        "ipinfo": "AS7922 Comcast Cable Communications, LLC"
    },
    {
        "subver": "\/Shibetoshi:1.14.3\/",
        "lat": "-27.4679",
        "lon": "153.0281",
        "city": "Brisbane",
        "country": "AU",
        "ipinfo": "AS10143 Exetel Pty Ltd"
    },
    {
        "subver": "\/Shibetoshi:1.14.3\/",
        "lat": "38.8809",
        "lon": "-77.3008",
        "city": "Oakton",
        "country": "US",
        "ipinfo": "AS701 Verizon Business"
    },
    {
        "subver": "\/Shibetoshi:1.14.6\/",
        "lat": "60.3540",
        "lon": "24.9794",
        "city": "Tuusula",
        "country": "FI",
        "ipinfo": "AS24940 Hetzner Online GmbH"
    },
    {
        "subver": "\/Shibetoshi:1.14.7\/",
        "lat": "47.5933",
        "lon": "7.6208",
        "city": "Weil am Rhein",
        "country": "DE",
        "ipinfo": "AS35244 Tele Columbus AG"
    },
    {
        "subver": "\/Shibetoshi:1.14.5\/",
        "lat": "38.8951",
        "lon": "-77.0364",
        "city": "Washington",
        "country": "US",
        "ipinfo": "AS45102 Alibaba (US) Technology Co., Ltd."
    },
    {
        "subver": "",
        "lat": "49.4542",
        "lon": "11.0775",
        "city": "N\u00fcrnberg",
        "country": "DE",
        "ipinfo": "AS51167 Contabo GmbH"
    },
    {
        "subver": "\/Shibetoshi:1.14.4\/",
        "lat": "34.2619",
        "lon": "-118.4587",
        "city": "Mission Hills",
        "country": "US",
        "ipinfo": "AS20001 Charter Communications Inc"
    },
    {
        "subver": "\/Shibetoshi:1.14.7\/",
        "lat": "40.1559",
        "lon": "-105.1624",
        "city": "Longmont",
        "country": "US",
        "ipinfo": "AS393552 Longmont Power & Communications"
    },
    {
        "subver": "\/Shibetoshi:1.14.4\/",
        "lat": "25.6062",
        "lon": "-80.3426",
        "city": "Miami",
        "country": "US",
        "ipinfo": "AS7018 AT&T Services, Inc."
    },
    {
        "subver": "\/Shibetoshi:1.14.7(Do Only Good Everyday)\/",
        "lat": "39.7216",
        "lon": "-84.0290",
        "city": "Dayton",
        "country": "US",
        "ipinfo": "AS7018 AT&T Services, Inc."
    },
    {
        "subver": "\/Shibetoshi:1.14.5\/",
        "lat": "28.6700",
        "lon": "-81.2081",
        "city": "Oviedo",
        "country": "US",
        "ipinfo": "AS7018 AT&T Services, Inc."
    },
    {
        "subver": "\/Shibetoshi:1.14.3\/",
        "lat": "47.3176",
        "lon": "-119.5537",
        "city": "Ephrata",
        "country": "US",
        "ipinfo": "AS25764 iFiber Communications Corp."
    },
    {
        "subver": "\/Shibetoshi:1.14.4\/",
        "lat": "51.3396",
        "lon": "12.3713",
        "city": "Leipzig",
        "country": "DE",
        "ipinfo": "AS24940 Hetzner Online GmbH"
    },
    {
        "subver": "\/Shibetoshi:1.14.4\/",
        "lat": "32.7714",
        "lon": "-97.2915",
        "city": "Fort Worth",
        "country": "US",
        "ipinfo": "AS20115 Charter Communications"
    },
    {
        "subver": "\/Shibetoshi:1.14.5\/",
        "lat": "51.5085",
        "lon": "-0.1257",
        "city": "London",
        "country": "GB",
        "ipinfo": "AS16276 OVH SAS"
    },
    {
        "subver": "",
        "lat": "33.4665",
        "lon": "-111.9984",
        "city": "Phoenix",
        "country": "US",
        "ipinfo": "AS31898 Oracle Corporation"
    },
    {
        "subver": "\/Shibetoshi:1.14.6\/",
        "lat": "48.1089",
        "lon": "11.6074",
        "city": "Munich",
        "country": "DE",
        "ipinfo": "AS51167 Contabo GmbH"
    },
    {
        "subver": "\/Shibetoshi:1.14.4\/",
        "lat": "49.1166",
        "lon": "10.7597",
        "city": "Gunzenhausen",
        "country": "DE",
        "ipinfo": "AS24940 Hetzner Online GmbH"
    },
    {
        "subver": "\/Shibetoshi:1.14.6\/",
        "lat": "61.2037",
        "lon": "-149.7447",
        "city": "Anchorage",
        "country": "US",
        "ipinfo": "AS8047 GENERAL COMMUNICATION, INC."
    },
    {
        "subver": "",
        "lat": "37.3924",
        "lon": "-121.9623",
        "city": "Santa Clara",
        "country": "US",
        "ipinfo": "AS20473 The Constant Company, LLC"
    },
    {
        "subver": "\/Shibetoshi:1.14.5\/",
        "lat": "50.6942",
        "lon": "3.1746",
        "city": "Roubaix",
        "country": "FR",
        "ipinfo": "AS16276 OVH SAS"
    },
    {
        "subver": "\/Shibetoshi:1.14.2\/",
        "lat": "43.2500",
        "lon": "76.9167",
        "city": "Almaty",
        "country": "KZ",
        "ipinfo": "AS48716 PS Internet Company LLC"
    },
    {
        "subver": "\/Shibetoshi:1.14.6\/",
        "lat": "1.2897",
        "lon": "103.8501",
        "city": "Singapore",
        "country": "SG",
        "ipinfo": "AS16509 Amazon.com, Inc."
    },
    {
        "subver": "",
        "lat": "32.9482",
        "lon": "-96.7297",
        "city": "Richardson",
        "country": "US",
        "ipinfo": "AS63949 Linode, LLC"
    },
    {
        "subver": "\/btcwire:0.5.0\/",
        "lat": "50.1155",
        "lon": "8.6842",
        "city": "Frankfurt am Main",
        "country": "DE",
        "ipinfo": "AS51167 Contabo GmbH"
    },
    {
        "subver": "\/Shibetoshi:1.14.6\/",
        "lat": "53.1929",
        "lon": "5.8211",
        "city": "Leeuwarden",
        "country": "NL",
        "ipinfo": "AS1136 KPN B.V."
    },
    {
        "subver": "\/Shibetoshi:1.14.6\/",
        "lat": "45.5234",
        "lon": "-122.6762",
        "city": "Portland",
        "country": "US",
        "ipinfo": "AS16276 OVH SAS"
    },
    {
        "subver": "\/Shibetoshi:1.14.4\/",
        "lat": "40.0334",
        "lon": "-83.1582",
        "city": "Hilliard",
        "country": "US",
        "ipinfo": "AS16509 Amazon.com, Inc."
    },
    {
        "subver": "\/Shibetoshi:1.14.7\/",
        "lat": "44.1204",
        "lon": "-69.2400",
        "city": "Warren",
        "country": "US",
        "ipinfo": "AS11351 Charter Communications Inc"
    },
    {
        "subver": "\/Shibetoshi:1.14.7\/",
        "lat": "48.5839",
        "lon": "7.7455",
        "city": "Strasbourg",
        "country": "FR",
        "ipinfo": "AS8972 Host Europe GmbH"
    },
    {
        "subver": "\/Shibetoshi:1.14.5\/",
        "lat": "54.9027",
        "lon": "23.9096",
        "city": "Kaunas",
        "country": "LT",
        "ipinfo": "AS8764 Telia Lietuva, AB"
    },
    {
        "subver": "\/Shibetoshi:1.14.6\/",
        "lat": "40.4540",
        "lon": "-75.8180",
        "city": "Fleetwood",
        "country": "US",
        "ipinfo": "AS3737 PenTeleData Inc."
    },
    {
        "subver": "\/Shibetoshi:1.14.2\/",
        "lat": "39.9925",
        "lon": "-75.1415",
        "city": "Philadelphia",
        "country": "US",
        "ipinfo": "AS7922 Comcast Cable Communications, LLC"
    },
    {
        "subver": "\/Shibetoshi:1.14.7(vanD-2)\/",
        "lat": "52.1618",
        "lon": "5.3976",
        "city": "Amersfoort",
        "country": "NL",
        "ipinfo": "AS62105 Jonaz B.V."
    },
    {
        "subver": "",
        "lat": "48.8534",
        "lon": "2.3488",
        "city": "Paris",
        "country": "FR",
        "ipinfo": "AS12322 Free SAS"
    },
    {
        "subver": "\/Shibetoshi:1.14.6\/",
        "lat": "52.2276",
        "lon": "16.3653",
        "city": "Grodzisk Wielkopolski",
        "country": "PL",
        "ipinfo": "AS204568 KRZYSZTOF GAWRON PIKOL SYSTEM"
    },
    {
        "subver": "\/Shibetoshi:1.14.6\/",
        "lat": "41.1148",
        "lon": "-74.1496",
        "city": "Suffern",
        "country": "US",
        "ipinfo": "AS701 Verizon Business"
    },
    {
        "subver": "\/Shibetoshi:1.14.6\/",
        "lat": "35.6895",
        "lon": "139.6917",
        "city": "Tokyo",
        "country": "JP",
        "ipinfo": "AS17676 Softbank BB Corp."
    },
    {
        "subver": "\/btcwire:0.5.0\/",
        "lat": "50.1155",
        "lon": "8.6842",
        "city": "Frankfurt am Main",
        "country": "DE",
        "ipinfo": "AS51167 Contabo GmbH"
    },
    {
        "subver": "\/Shibetoshi:1.14.6\/",
        "lat": "40.7143",
        "lon": "-74.0060",
        "city": "New York City",
        "country": "US",
        "ipinfo": "AS29802 HIVELOCITY, Inc."
    },
    {
        "subver": "\/btcwire:0.5.0\/",
        "lat": "50.1155",
        "lon": "8.6842",
        "city": "Frankfurt am Main",
        "country": "DE",
        "ipinfo": "AS51167 Contabo GmbH"
    },
    {
        "subver": "\/btcwire:0.5.0\/",
        "lat": "50.1155",
        "lon": "8.6842",
        "city": "Frankfurt am Main",
        "country": "DE",
        "ipinfo": "AS51167 Contabo GmbH"
    },
    {
        "subver": "\/btcwire:0.5.0\/",
        "lat": "50.1155",
        "lon": "8.6842",
        "city": "Frankfurt am Main",
        "country": "DE",
        "ipinfo": "AS51167 Contabo GmbH"
    },
    {
        "subver": "\/btcwire:0.5.0\/",
        "lat": "50.1155",
        "lon": "8.6842",
        "city": "Frankfurt am Main",
        "country": "DE",
        "ipinfo": "AS51167 Contabo GmbH"
    },
    {
        "subver": "\/Shibetoshi:1.14.6\/",
        "lat": "34.1478",
        "lon": "-118.1445",
        "city": "Pasadena",
        "country": "US",
        "ipinfo": "AS51167 Contabo GmbH"
    },
    {
        "subver": "\/Shibetoshi:1.14.4\/",
        "lat": "33.8796",
        "lon": "-118.2168",
        "city": "Compton",
        "country": "US",
        "ipinfo": "AS20001 Charter Communications Inc"
    },
    {
        "subver": "\/Shibetoshi:1.14.5\/",
        "lat": "49.4179",
        "lon": "2.8261",
        "city": "Compi\u00e8gne",
        "country": "FR",
        "ipinfo": "AS3215 Orange S.A."
    },
    {
        "subver": "\/Shibetoshi:1.14.6\/",
        "lat": "45.8399",
        "lon": "-119.7006",
        "city": "Boardman",
        "country": "US",
        "ipinfo": "AS16509 Amazon.com, Inc."
    },
    {
        "subver": "\/btcwire:0.5.0\/",
        "lat": "50.1155",
        "lon": "8.6842",
        "city": "Frankfurt am Main",
        "country": "DE",
        "ipinfo": "AS51167 Contabo GmbH"
    },
    {
        "subver": "\/Shibetoshi:1.14.7\/",
        "lat": "52.3990",
        "lon": "4.9361",
        "city": "Amsterdam",
        "country": "NL",
        "ipinfo": "AS25596 Cambrium IT Services B.V."
    },
    {
        "subver": "\/Shibetoshi:1.14.6\/",
        "lat": "28.3022",
        "lon": "-82.6264",
        "city": "New Port Richey",
        "country": "US",
        "ipinfo": "AS33363 Charter Communications, Inc"
    },
    {
        "subver": "\/btcwire:0.5.0\/",
        "lat": "50.1155",
        "lon": "8.6842",
        "city": "Frankfurt am Main",
        "country": "DE",
        "ipinfo": "AS51167 Contabo GmbH"
    },
    {
        "subver": "",
        "lat": "60.3540",
        "lon": "24.9794",
        "city": "Tuusula",
        "country": "FI",
        "ipinfo": "AS24940 Hetzner Online GmbH"
    },
    {
        "subver": "\/btcwire:0.5.0\/",
        "lat": "50.1155",
        "lon": "8.6842",
        "city": "Frankfurt am Main",
        "country": "DE",
        "ipinfo": "AS51167 Contabo GmbH"
    },
    {
        "subver": "\/blockchair.com\/dogecoin\/nodes\/",
        "lat": "52.3740",
        "lon": "4.8897",
        "city": "Amsterdam",
        "country": "NL",
        "ipinfo": "AS14061 DigitalOcean, LLC"
    },
    {
        "subver": "\/Shibetoshi:1.14.7(f20b584891c6343aa375a2c6e140f04516a8ffceed24576cdb33845b3c6b2e7b)\/",
        "lat": "43.7102",
        "lon": "11.2172",
        "city": "Tavarnuzze",
        "country": "IT",
        "ipinfo": "AS12874 Fastweb SpA"
    },
    {
        "subver": "\/btcwire:0.5.0\/",
        "lat": "50.1155",
        "lon": "8.6842",
        "city": "Frankfurt am Main",
        "country": "DE",
        "ipinfo": "AS51167 Contabo GmbH"
    },
    {
        "subver": "\/btcwire:0.5.0\/",
        "lat": "50.1155",
        "lon": "8.6842",
        "city": "Frankfurt am Main",
        "country": "DE",
        "ipinfo": "AS51167 Contabo GmbH"
    },
    {
        "subver": "",
        "lat": "43.7542",
        "lon": "11.1879",
        "city": "Scandicci",
        "country": "IT",
        "ipinfo": "AS12874 Fastweb SpA"
    },
    {
        "subver": "\/Shibetoshi:1.14.6\/",
        "lat": "51.2217",
        "lon": "6.7762",
        "city": "D\u00fcsseldorf",
        "country": "DE",
        "ipinfo": "AS51167 Contabo GmbH"
    },
    {
        "subver": "\/btcwire:0.5.0\/",
        "lat": "50.1155",
        "lon": "8.6842",
        "city": "Frankfurt am Main",
        "country": "DE",
        "ipinfo": "AS51167 Contabo GmbH"
    },
    {
        "subver": "\/btcwire:0.5.0\/",
        "lat": "50.1155",
        "lon": "8.6842",
        "city": "Frankfurt am Main",
        "country": "DE",
        "ipinfo": "AS51167 Contabo GmbH"
    },
    {
        "subver": "\/Shibetoshi:1.14.6\/",
        "lat": "42.7380",
        "lon": "27.4964",
        "city": "Bata",
        "country": "BG",
        "ipinfo": "AS29694 VILLAGENET Ltd."
    },
    {
        "subver": "\/btcwire:0.5.0\/",
        "lat": "60.3540",
        "lon": "24.9794",
        "city": "Tuusula",
        "country": "FI",
        "ipinfo": "AS24940 Hetzner Online GmbH"
    },
    {
        "subver": "\/btcwire:0.5.0\/",
        "lat": "60.3540",
        "lon": "24.9794",
        "city": "Tuusula",
        "country": "FI",
        "ipinfo": "AS24940 Hetzner Online GmbH"
    },
    {
        "subver": "\/Shibetoshi:1.14.2\/",
        "lat": "48.8534",
        "lon": "2.3488",
        "city": "Paris",
        "country": "FR",
        "ipinfo": "AS12322 Free SAS"
    },
    {
        "subver": "\/Shibetoshi:1.14.2\/",
        "lat": "43.4764",
        "lon": "-80.5842",
        "city": "Kitchener",
        "country": "CA",
        "ipinfo": "AS812 Rogers Communications Canada Inc."
    },
    {
        "subver": "\/btcwire:0.5.0\/",
        "lat": "50.1155",
        "lon": "8.6842",
        "city": "Frankfurt am Main",
        "country": "DE",
        "ipinfo": "AS51167 Contabo GmbH"
    },
    {
        "subver": "\/btcwire:0.5.0\/",
        "lat": "60.3540",
        "lon": "24.9794",
        "city": "Tuusula",
        "country": "FI",
        "ipinfo": "AS24940 Hetzner Online GmbH"
    },
    {
        "subver": "\/Shibetoshi:1.14.6\/",
        "lat": "53.6734",
        "lon": "-1.6964",
        "city": "Mirfield",
        "country": "GB",
        "ipinfo": "AS5089 Virgin Media Limited"
    },
    {
        "subver": "\/btcwire:0.5.0\/",
        "lat": "50.1155",
        "lon": "8.6842",
        "city": "Frankfurt am Main",
        "country": "DE",
        "ipinfo": "AS51167 Contabo GmbH"
    },
    {
        "subver": "\/Shibetoshi:1.14.6\/",
        "lat": "39.0437",
        "lon": "-77.4875",
        "city": "Ashburn",
        "country": "US",
        "ipinfo": "AS4922 Shenandoah Cable Television LLC"
    },
    {
        "subver": "\/btcwire:0.5.0\/",
        "lat": "50.1155",
        "lon": "8.6842",
        "city": "Frankfurt am Main",
        "country": "DE",
        "ipinfo": "AS51167 Contabo GmbH"
    },
    {
        "subver": "\/Shibetoshi:1.14.7\/",
        "lat": "42.6930",
        "lon": "-83.4118",
        "city": "Waterford",
        "country": "US",
        "ipinfo": "AS33668 Comcast Cable Communications, LLC"
    },
    {
        "subver": "\/Shibetoshi:1.14.6\/",
        "lat": "35.6895",
        "lon": "139.6917",
        "city": "Tokyo",
        "country": "JP",
        "ipinfo": "AS16509 Amazon.com, Inc."
    },
    {
        "subver": "\/btcwire:0.5.0\/",
        "lat": "50.1155",
        "lon": "8.6842",
        "city": "Frankfurt am Main",
        "country": "DE",
        "ipinfo": "AS51167 Contabo GmbH"
    },
    {
        "subver": "\/Shibetoshi:1.14.6\/",
        "lat": "37.6808",
        "lon": "-97.1558",
        "city": "Wichita",
        "country": "US",
        "ipinfo": "AS7018 AT&T Services, Inc."
    },
    {
        "subver": "\/btcwire:0.5.0\/",
        "lat": "50.1155",
        "lon": "8.6842",
        "city": "Frankfurt am Main",
        "country": "DE",
        "ipinfo": "AS51167 Contabo GmbH"
    },
    {
        "subver": "\/btcwire:0.5.0\/",
        "lat": "50.1155",
        "lon": "8.6842",
        "city": "Frankfurt am Main",
        "country": "DE",
        "ipinfo": "AS51167 Contabo GmbH"
    },
    {
        "subver": "\/btcwire:0.5.0\/",
        "lat": "60.3540",
        "lon": "24.9794",
        "city": "Tuusula",
        "country": "FI",
        "ipinfo": "AS24940 Hetzner Online GmbH"
    },
    {
        "subver": "\/Shibetoshi:1.14.5\/",
        "lat": "33.9653",
        "lon": "-118.2727",
        "city": "Los Angeles",
        "country": "US",
        "ipinfo": "AS20001 Charter Communications Inc"
    },
    {
        "subver": "\/btcwire:0.5.0\/",
        "lat": "50.1155",
        "lon": "8.6842",
        "city": "Frankfurt am Main",
        "country": "DE",
        "ipinfo": "AS51167 Contabo GmbH"
    },
    {
        "subver": "",
        "lat": "1.2897",
        "lon": "103.8501",
        "city": "Singapore",
        "country": "SG",
        "ipinfo": "AS16509 Amazon.com, Inc."
    },
    {
        "subver": "\/Shibetoshi:1.14.6\/",
        "lat": "60.3540",
        "lon": "24.9794",
        "city": "Tuusula",
        "country": "FI",
        "ipinfo": "AS24940 Hetzner Online GmbH"
    },
    {
        "subver": "\/Shibetoshi:1.14.4\/",
        "lat": "28.5826",
        "lon": "-81.1907",
        "city": "Orlando",
        "country": "US",
        "ipinfo": "AS7018 AT&T Services, Inc."
    },
    {
        "subver": "\/Shibetoshi:1.14.6\/",
        "lat": "52.3195",
        "lon": "16.1284",
        "city": "Nowy Tomy\u015bl",
        "country": "PL",
        "ipinfo": "AS204568 KRZYSZTOF GAWRON PIKOL SYSTEM"
    },
    {
        "subver": "\/Shibetoshi:1.14.6\/",
        "lat": "48.8835",
        "lon": "2.3219",
        "city": "Paris",
        "country": "FR",
        "ipinfo": "AS12322 Free SAS"
    },
    {
        "subver": "\/btcwire:0.5.0\/",
        "lat": "50.1155",
        "lon": "8.6842",
        "city": "Frankfurt am Main",
        "country": "DE",
        "ipinfo": "AS51167 Contabo GmbH"
    },
    {
        "subver": "\/btcwire:0.5.0\/",
        "lat": "50.1155",
        "lon": "8.6842",
        "city": "Frankfurt am Main",
        "country": "DE",
        "ipinfo": "AS51167 Contabo GmbH"
    },
    {
        "subver": "",
        "lat": "13.7083",
        "lon": "100.4562",
        "city": "Bangkok",
        "country": "TH",
        "ipinfo": "AS17552 True Online"
    },
    {
        "subver": "\/Shibetoshi:1.14.6\/",
        "lat": "49.1166",
        "lon": "10.7597",
        "city": "Gunzenhausen",
        "country": "DE",
        "ipinfo": "AS24940 Hetzner Online GmbH"
    },
    {
        "subver": "",
        "lat": "60.3540",
        "lon": "24.9794",
        "city": "Tuusula",
        "country": "FI",
        "ipinfo": "AS24940 Hetzner Online GmbH"
    },
    {
        "subver": "\/btcwire:0.5.0\/",
        "lat": "60.3540",
        "lon": "24.9794",
        "city": "Tuusula",
        "country": "FI",
        "ipinfo": "AS24940 Hetzner Online GmbH"
    },
    {
        "subver": "\/Shibetoshi:1.14.7\/",
        "lat": "37.6941",
        "lon": "-122.0863",
        "city": "Castro Valley",
        "country": "US",
        "ipinfo": "AS7018 AT&T Services, Inc."
    },
    {
        "subver": "\/btcwire:0.5.0\/",
        "lat": "50.1155",
        "lon": "8.6842",
        "city": "Frankfurt am Main",
        "country": "DE",
        "ipinfo": "AS51167 Contabo GmbH"
    },
    {
        "subver": "\/btcwire:0.5.0\/",
        "lat": "50.1155",
        "lon": "8.6842",
        "city": "Frankfurt am Main",
        "country": "DE",
        "ipinfo": "AS51167 Contabo GmbH"
    },
    {
        "subver": "\/btcwire:0.5.0\/",
        "lat": "50.1155",
        "lon": "8.6842",
        "city": "Frankfurt am Main",
        "country": "DE",
        "ipinfo": "AS51167 Contabo GmbH"
    },
    {
        "subver": "\/btcwire:0.5.0\/",
        "lat": "50.1155",
        "lon": "8.6842",
        "city": "Frankfurt am Main",
        "country": "DE",
        "ipinfo": "AS51167 Contabo GmbH"
    },
    {
        "subver": "\/btcwire:0.5.0\/",
        "lat": "50.1155",
        "lon": "8.6842",
        "city": "Frankfurt am Main",
        "country": "DE",
        "ipinfo": "AS51167 Contabo GmbH"
    },
    {
        "subver": "\/btcwire:0.5.0\/",
        "lat": "50.1155",
        "lon": "8.6842",
        "city": "Frankfurt am Main",
        "country": "DE",
        "ipinfo": "AS51167 Contabo GmbH"
    },
    {
        "subver": "\/Shibetoshi:1.14.5\/",
        "lat": "45.4289",
        "lon": "-75.6844",
        "city": "Ottawa",
        "country": "CA",
        "ipinfo": "AS812 Rogers Communications Canada Inc."
    },
    {
        "subver": "",
        "lat": "50.1155",
        "lon": "8.6842",
        "city": "Frankfurt am Main",
        "country": "DE",
        "ipinfo": "AS51167 Contabo GmbH"
    },
    {
        "subver": "\/btcwire:0.5.0\/",
        "lat": "50.1155",
        "lon": "8.6842",
        "city": "Frankfurt am Main",
        "country": "DE",
        "ipinfo": "AS51167 Contabo GmbH"
    },
    {
        "subver": "\/btcwire:0.5.0\/",
        "lat": "50.1155",
        "lon": "8.6842",
        "city": "Frankfurt am Main",
        "country": "DE",
        "ipinfo": "AS51167 Contabo GmbH"
    },
    {
        "subver": "\/btcwire:0.5.0\/",
        "lat": "50.1155",
        "lon": "8.6842",
        "city": "Frankfurt am Main",
        "country": "DE",
        "ipinfo": "AS51167 Contabo GmbH"
    },
    {
        "subver": "\/btcwire:0.5.0\/",
        "lat": "50.1155",
        "lon": "8.6842",
        "city": "Frankfurt am Main",
        "country": "DE",
        "ipinfo": "AS51167 Contabo GmbH"
    },
    {
        "subver": "\/Shibetoshi:1.14.7(OtomAkanIhsotAs)\/",
        "lat": "34.4954",
        "lon": "-77.5550",
        "city": "Holly Ridge",
        "country": "US",
        "ipinfo": "AS20115 Charter Communications"
    },
    {
        "subver": "\/btcwire:0.5.0\/",
        "lat": "50.1155",
        "lon": "8.6842",
        "city": "Frankfurt am Main",
        "country": "DE",
        "ipinfo": "AS51167 Contabo GmbH"
    },
    {
        "subver": "",
        "lat": "60.3540",
        "lon": "24.9794",
        "city": "Tuusula",
        "country": "FI",
        "ipinfo": "AS24940 Hetzner Online GmbH"
    },
    {
        "subver": "\/btcwire:0.5.0\/",
        "lat": "50.1155",
        "lon": "8.6842",
        "city": "Frankfurt am Main",
        "country": "DE",
        "ipinfo": "AS51167 Contabo GmbH"
    },
    {
        "subver": "\/btcwire:0.5.0\/",
        "lat": "60.3540",
        "lon": "24.9794",
        "city": "Tuusula",
        "country": "FI",
        "ipinfo": "AS24940 Hetzner Online GmbH"
    },
    {
        "subver": "\/btcwire:0.5.0\/",
        "lat": "50.1155",
        "lon": "8.6842",
        "city": "Frankfurt am Main",
        "country": "DE",
        "ipinfo": "AS51167 Contabo GmbH"
    },
    {
        "subver": "\/btcwire:0.5.0\/",
        "lat": "60.3540",
        "lon": "24.9794",
        "city": "Tuusula",
        "country": "FI",
        "ipinfo": "AS24940 Hetzner Online GmbH"
    },
    {
        "subver": "\/Shibetoshi:1.14.5\/",
        "lat": "36.6676",
        "lon": "-78.3875",
        "city": "Boydton",
        "country": "US",
        "ipinfo": "AS8075 Microsoft Corporation"
    },
    {
        "subver": "\/btcwire:0.5.0\/",
        "lat": "50.1155",
        "lon": "8.6842",
        "city": "Frankfurt am Main",
        "country": "DE",
        "ipinfo": "AS51167 Contabo GmbH"
    },
    {
        "subver": "\/btcwire:0.5.0\/",
        "lat": "60.3540",
        "lon": "24.9794",
        "city": "Tuusula",
        "country": "FI",
        "ipinfo": "AS24940 Hetzner Online GmbH"
    },
    {
        "subver": "\/btcwire:0.5.0\/",
        "lat": "50.1155",
        "lon": "8.6842",
        "city": "Frankfurt am Main",
        "country": "DE",
        "ipinfo": "AS51167 Contabo GmbH"
    },
    {
        "subver": "\/btcwire:0.5.0\/",
        "lat": "50.1155",
        "lon": "8.6842",
        "city": "Frankfurt am Main",
        "country": "DE",
        "ipinfo": "AS51167 Contabo GmbH"
    },
    {
        "subver": "\/Shibetoshi:1.14.6\/",
        "lat": "60.3540",
        "lon": "24.9794",
        "city": "Tuusula",
        "country": "FI",
        "ipinfo": "AS24940 Hetzner Online GmbH"
    },
    {
        "subver": "\/btcwire:0.5.0\/",
        "lat": "60.3540",
        "lon": "24.9794",
        "city": "Tuusula",
        "country": "FI",
        "ipinfo": "AS24940 Hetzner Online GmbH"
    },
    {
        "subver": "\/Shibetoshi:1.14.7\/",
        "lat": "37.6848",
        "lon": "-85.8784",
        "city": "Elizabethtown",
        "country": "US",
        "ipinfo": "AS26727 Brandenburg Telephone Company"
    },
    {
        "subver": "",
        "lat": "50.1155",
        "lon": "8.6842",
        "city": "Frankfurt am Main",
        "country": "DE",
        "ipinfo": "AS51167 Contabo GmbH"
    },
    {
        "subver": "\/Shibetoshi:1.14.7\/",
        "lat": "26.6396",
        "lon": "-80.0827",
        "city": "West Palm Beach",
        "country": "US",
        "ipinfo": "AS7018 AT&T Services, Inc."
    },
    {
        "subver": "\/btcwire:0.5.0\/",
        "lat": "50.1155",
        "lon": "8.6842",
        "city": "Frankfurt am Main",
        "country": "DE",
        "ipinfo": "AS51167 Contabo GmbH"
    },
    {
        "subver": "\/Shibetoshi:1.14.4\/",
        "lat": "51.4408",
        "lon": "5.4778",
        "city": "Eindhoven",
        "country": "NL",
        "ipinfo": "AS20857 Signet B.V."
    },
    {
        "subver": "\/Shibetoshi:1.14.7\/",
        "lat": "40.7143",
        "lon": "-74.0060",
        "city": "New York City",
        "country": "US",
        "ipinfo": "AS6128 Cablevision Systems Corp."
    },
    {
        "subver": "\/btcwire:0.5.0\/",
        "lat": "50.1155",
        "lon": "8.6842",
        "city": "Frankfurt am Main",
        "country": "DE",
        "ipinfo": "AS51167 Contabo GmbH"
    },
    {
        "subver": "\/btcwire:0.5.0\/",
        "lat": "50.1155",
        "lon": "8.6842",
        "city": "Frankfurt am Main",
        "country": "DE",
        "ipinfo": "AS51167 Contabo GmbH"
    },
    {
        "subver": "\/Shibetoshi:1.14.6\/",
        "lat": "35.6895",
        "lon": "139.6917",
        "city": "Tokyo",
        "country": "JP",
        "ipinfo": "AS16509 Amazon.com, Inc."
    },
    {
        "subver": "\/Shibetoshi:1.14.6\/",
        "lat": "50.1025",
        "lon": "8.6299",
        "city": "Frankfurt am Main",
        "country": "DE",
        "ipinfo": "AS14061 DigitalOcean, LLC"
    },
    {
        "subver": "\/Shibetoshi:1.14.2\/",
        "lat": "53.0168",
        "lon": "-112.8353",
        "city": "Camrose",
        "country": "CA",
        "ipinfo": "AS852 TELUS Communications Inc."
    },
    {
        "subver": "\/btcwire:0.5.0\/",
        "lat": "50.1155",
        "lon": "8.6842",
        "city": "Frankfurt am Main",
        "country": "DE",
        "ipinfo": "AS51167 Contabo GmbH"
    },
    {
        "subver": "\/Shibetoshi:1.14.6(886a79dfca3bdeaeb5f3fc5fceae8371507d6cd94997880a0112b835b7ea5ab1)\/",
        "lat": "33.9067",
        "lon": "-118.0101",
        "city": "La Mirada",
        "country": "US",
        "ipinfo": "AS20001 Charter Communications Inc"
    },
    {
        "subver": "\/btcwire:0.5.0\/",
        "lat": "60.3540",
        "lon": "24.9794",
        "city": "Tuusula",
        "country": "FI",
        "ipinfo": "AS24940 Hetzner Online GmbH"
    },
    {
        "subver": "\/btcwire:0.5.0\/",
        "lat": "60.3540",
        "lon": "24.9794",
        "city": "Tuusula",
        "country": "FI",
        "ipinfo": "AS24940 Hetzner Online GmbH"
    },
    {
        "subver": "\/btcwire:0.5.0\/",
        "lat": "60.3540",
        "lon": "24.9794",
        "city": "Tuusula",
        "country": "FI",
        "ipinfo": "AS24940 Hetzner Online GmbH"
    },
    {
        "subver": "\/btcwire:0.5.0\/",
        "lat": "60.3540",
        "lon": "24.9794",
        "city": "Tuusula",
        "country": "FI",
        "ipinfo": "AS24940 Hetzner Online GmbH"
    },
    {
        "subver": "\/Shibetoshi:1.14.7(5457cbcb01d96b6a85d5269fdc448b43fb44f529ae54af31b2fc6b6a782c3a10)\/",
        "lat": "48.1958",
        "lon": "-114.3129",
        "city": "Kalispell",
        "country": "US",
        "ipinfo": "AS18897 Montana Sky Networks, Inc."
    },
    {
        "subver": "\/btcwire:0.5.0\/",
        "lat": "50.1155",
        "lon": "8.6842",
        "city": "Frankfurt am Main",
        "country": "DE",
        "ipinfo": "AS51167 Contabo GmbH"
    },
    {
        "subver": "\/Shibetoshi:1.14.2\/",
        "lat": "50.9803",
        "lon": "11.3290",
        "city": "Weimar",
        "country": "DE",
        "ipinfo": "AS24940 Hetzner Online GmbH"
    },
    {
        "subver": "\/btcwire:0.5.0\/",
        "lat": "50.1155",
        "lon": "8.6842",
        "city": "Frankfurt am Main",
        "country": "DE",
        "ipinfo": "AS51167 Contabo GmbH"
    },
    {
        "subver": "\/btcwire:0.5.0\/",
        "lat": "60.3540",
        "lon": "24.9794",
        "city": "Tuusula",
        "country": "FI",
        "ipinfo": "AS24940 Hetzner Online GmbH"
    },
    {
        "subver": "\/btcwire:0.5.0\/",
        "lat": "60.3540",
        "lon": "24.9794",
        "city": "Tuusula",
        "country": "FI",
        "ipinfo": "AS24940 Hetzner Online GmbH"
    },
    {
        "subver": "\/Shibetoshi:1.10.0\/",
        "lat": "44.9490",
        "lon": "-123.0040",
        "city": "Salem",
        "country": "US",
        "ipinfo": "AS33490 Comcast Cable Communications, LLC"
    },
    {
        "subver": "\/Shibetoshi:1.14.6\/",
        "lat": "4.9167",
        "lon": "-52.2667",
        "city": "R\u00e9mire-Montjoly",
        "country": "GF",
        "ipinfo": "AS3215 Orange S.A."
    },
    {
        "subver": "\/Shibetoshi:1.14.7\/",
        "lat": "49.1166",
        "lon": "10.7597",
        "city": "Gunzenhausen",
        "country": "DE",
        "ipinfo": "AS24940 Hetzner Online GmbH"
    },
    {
        "subver": "\/btcwire:0.5.0\/",
        "lat": "50.1155",
        "lon": "8.6842",
        "city": "Frankfurt am Main",
        "country": "DE",
        "ipinfo": "AS51167 Contabo GmbH"
    },
    {
        "subver": "",
        "lat": "50.1155",
        "lon": "8.6842",
        "city": "Frankfurt am Main",
        "country": "DE",
        "ipinfo": "AS51167 Contabo GmbH"
    },
    {
        "subver": "\/Shibetoshi:1.14.6\/",
        "lat": "35.6769",
        "lon": "139.7714",
        "city": "Tokyo",
        "country": "JP",
        "ipinfo": "AS16509 Amazon.com, Inc."
    },
    {
        "subver": "\/btcwire:0.5.0\/",
        "lat": "50.1155",
        "lon": "8.6842",
        "city": "Frankfurt am Main",
        "country": "DE",
        "ipinfo": "AS51167 Contabo GmbH"
    },
    {
        "subver": "\/Shibetoshi:1.14.6\/",
        "lat": "49.1166",
        "lon": "10.7597",
        "city": "Gunzenhausen",
        "country": "DE",
        "ipinfo": "AS24940 Hetzner Online GmbH"
    },
    {
        "subver": "\/Shibetoshi:1.14.6\/",
        "lat": "50.1155",
        "lon": "8.6842",
        "city": "Frankfurt am Main",
        "country": "DE",
        "ipinfo": "AS16509 Amazon.com, Inc."
    },
    {
        "subver": "\/Shibetoshi:1.14.6\/",
        "lat": "52.4053",
        "lon": "4.8088",
        "city": "Amsterdam",
        "country": "NL",
        "ipinfo": "AS14061 DigitalOcean, LLC"
    },
    {
        "subver": "",
        "lat": "50.1155",
        "lon": "8.6842",
        "city": "Frankfurt am Main",
        "country": "DE",
        "ipinfo": "AS8075 Microsoft Corporation"
    },
    {
        "subver": "\/Shibetoshi:1.14.6\/",
        "lat": "60.1695",
        "lon": "24.9354",
        "city": "Helsinki",
        "country": "FI",
        "ipinfo": "AS24940 Hetzner Online GmbH"
    },
    {
        "subver": "\/Shibetoshi:1.14.6\/",
        "lat": "60.1570",
        "lon": "24.9369",
        "city": "Helsinki",
        "country": "FI",
        "ipinfo": "AS204779 Local Loop Oy"
    },
    {
        "subver": "\/btcwire:0.5.0\/",
        "lat": "50.1155",
        "lon": "8.6842",
        "city": "Frankfurt am Main",
        "country": "DE",
        "ipinfo": "AS51167 Contabo GmbH"
    },
    {
        "subver": "\/btcwire:0.5.0\/",
        "lat": "60.3540",
        "lon": "24.9794",
        "city": "Tuusula",
        "country": "FI",
        "ipinfo": "AS24940 Hetzner Online GmbH"
    },
    {
        "subver": "\/Shibetoshi:1.14.6\/",
        "lat": "48.5839",
        "lon": "7.7455",
        "city": "Strasbourg",
        "country": "FR",
        "ipinfo": "AS29066 Host Europe GmbH"
    },
    {
        "subver": "\/Shibetoshi:1.14.6\/",
        "lat": "39.0853",
        "lon": "-77.6452",
        "city": "Ashburn",
        "country": "US",
        "ipinfo": "AS395460 Prolixium Enterprises, LLC"
    },
    {
        "subver": "\/Shibetoshi:1.14.6\/",
        "lat": "51.5085",
        "lon": "-0.1257",
        "city": "London",
        "country": "GB",
        "ipinfo": "AS16276 OVH SAS"
    },
    {
        "subver": "\/Shibetoshi:1.14.7\/",
        "lat": "44.1545",
        "lon": "-75.7088",
        "city": "Philadelphia",
        "country": "US",
        "ipinfo": "AS11351 Charter Communications Inc"
    },
    {
        "subver": "\/Shibetoshi:1.14.7(Mine at p2pool.hyperdonkey.com)\/",
        "lat": "30.5144",
        "lon": "-92.0897",
        "city": "Opelousas",
        "country": "US",
        "ipinfo": "AS20115 Charter Communications"
    },
    {
        "subver": "\/btcwire:0.5.0\/",
        "lat": "60.3540",
        "lon": "24.9794",
        "city": "Tuusula",
        "country": "FI",
        "ipinfo": "AS24940 Hetzner Online GmbH"
    },
    {
        "subver": "\/Shibetoshi:1.14.6(e09e5ce3687299f5a76680698514067f8914432f8fbc6ae934046a92c8b681da)\/",
        "lat": "50.1025",
        "lon": "8.6299",
        "city": "Frankfurt am Main",
        "country": "DE",
        "ipinfo": "AS31898 Oracle Corporation"
    },
    {
        "subver": "",
        "lat": "60.3540",
        "lon": "24.9794",
        "city": "Tuusula",
        "country": "FI",
        "ipinfo": "AS24940 Hetzner Online GmbH"
    },
    {
        "subver": "\/Shibetoshi:1.14.7(_nformant)\/",
        "lat": "38.7135",
        "lon": "-78.1594",
        "city": "Washington",
        "country": "US",
        "ipinfo": "AS8075 Microsoft Corporation"
    },
    {
        "subver": "\/Shibetoshi:1.14.6\/",
        "lat": "51.9859",
        "lon": "9.2525",
        "city": "Bad Pyrmont",
        "country": "DE",
        "ipinfo": "AS197540 netcup GmbH"
    },
    {
        "subver": "\/btcwire:0.5.0\/",
        "lat": "50.1155",
        "lon": "8.6842",
        "city": "Frankfurt am Main",
        "country": "DE",
        "ipinfo": "AS51167 Contabo GmbH"
    },
    {
        "subver": "",
        "lat": "42.4251",
        "lon": "-71.0662",
        "city": "Malden",
        "country": "US",
        "ipinfo": "AS701 Verizon Business"
    },
    {
        "subver": "\/btcwire:0.5.0\/",
        "lat": "50.1155",
        "lon": "8.6842",
        "city": "Frankfurt am Main",
        "country": "DE",
        "ipinfo": "AS51167 Contabo GmbH"
    },
    {
        "subver": "",
        "lat": "50.1155",
        "lon": "8.6842",
        "city": "Frankfurt am Main",
        "country": "DE",
        "ipinfo": "AS51167 Contabo GmbH"
    },
    {
        "subver": "\/btcwire:0.5.0\/",
        "lat": "50.1155",
        "lon": "8.6842",
        "city": "Frankfurt am Main",
        "country": "DE",
        "ipinfo": "AS51167 Contabo GmbH"
    },
    {
        "subver": "\/btcwire:0.5.0\/",
        "lat": "50.1155",
        "lon": "8.6842",
        "city": "Frankfurt am Main",
        "country": "DE",
        "ipinfo": "AS51167 Contabo GmbH"
    },
    {
        "subver": "\/btcwire:0.5.0\/",
        "lat": "50.1155",
        "lon": "8.6842",
        "city": "Frankfurt am Main",
        "country": "DE",
        "ipinfo": "AS51167 Contabo GmbH"
    },
    {
        "subver": "\/Shibetoshi:1.14.6\/",
        "lat": "1.2737",
        "lon": "103.8601",
        "city": "Singapore",
        "country": "SG",
        "ipinfo": "AS16509 Amazon.com, Inc."
    },
    {
        "subver": "\/btcwire:0.5.0\/",
        "lat": "50.1155",
        "lon": "8.6842",
        "city": "Frankfurt am Main",
        "country": "DE",
        "ipinfo": "AS51167 Contabo GmbH"
    },
    {
        "subver": "\/btcwire:0.5.0\/",
        "lat": "50.1155",
        "lon": "8.6842",
        "city": "Frankfurt am Main",
        "country": "DE",
        "ipinfo": "AS51167 Contabo GmbH"
    },
    {
        "subver": "\/Shibetoshi:1.14.6\/",
        "lat": "51.9022",
        "lon": "-0.2026",
        "city": "Stevenage",
        "country": "GB",
        "ipinfo": "AS20712 Andrews & Arnold Ltd"
    },
    {
        "subver": "\/btcwire:0.5.0\/",
        "lat": "60.1695",
        "lon": "24.9354",
        "city": "Helsinki",
        "country": "FI",
        "ipinfo": "AS24940 Hetzner Online GmbH"
    },
    {
        "subver": "",
        "lat": "50.1155",
        "lon": "8.6842",
        "city": "Frankfurt am Main",
        "country": "DE",
        "ipinfo": "AS51167 Contabo GmbH"
    },
    {
        "subver": "\/btcwire:0.5.0\/",
        "lat": "60.1695",
        "lon": "24.9354",
        "city": "Helsinki",
        "country": "FI",
        "ipinfo": "AS24940 Hetzner Online GmbH"
    },
    {
        "subver": "\/btcwire:0.5.0\/",
        "lat": "60.1695",
        "lon": "24.9354",
        "city": "Helsinki",
        "country": "FI",
        "ipinfo": "AS24940 Hetzner Online GmbH"
    },
    {
        "subver": "\/btcwire:0.5.0\/",
        "lat": "60.1695",
        "lon": "24.9354",
        "city": "Helsinki",
        "country": "FI",
        "ipinfo": "AS24940 Hetzner Online GmbH"
    },
    {
        "subver": "\/btcwire:0.5.0\/",
        "lat": "50.1155",
        "lon": "8.6842",
        "city": "Frankfurt am Main",
        "country": "DE",
        "ipinfo": "AS51167 Contabo GmbH"
    },
    {
        "subver": "\/btcwire:0.5.0\/",
        "lat": "50.1155",
        "lon": "8.6842",
        "city": "Frankfurt am Main",
        "country": "DE",
        "ipinfo": "AS51167 Contabo GmbH"
    },
    {
        "subver": "\/btcwire:0.5.0\/",
        "lat": "64.5667",
        "lon": "26.8333",
        "city": "Vaala",
        "country": "FI",
        "ipinfo": "AS24940 Hetzner Online GmbH"
    },
    {
        "subver": "\/btcwire:0.5.0\/",
        "lat": "64.5667",
        "lon": "26.8333",
        "city": "Vaala",
        "country": "FI",
        "ipinfo": "AS24940 Hetzner Online GmbH"
    },
    {
        "subver": "\/btcwire:0.5.0\/",
        "lat": "50.1155",
        "lon": "8.6842",
        "city": "Frankfurt am Main",
        "country": "DE",
        "ipinfo": "AS51167 Contabo GmbH"
    },
    {
        "subver": "\/btcwire:0.5.0\/",
        "lat": "60.1695",
        "lon": "24.9354",
        "city": "Helsinki",
        "country": "FI",
        "ipinfo": "AS24940 Hetzner Online GmbH"
    },
    {
        "subver": "\/Shibetoshi:1.14.7\/",
        "lat": "33.7523",
        "lon": "-117.8541",
        "city": "Santa Ana",
        "country": "US",
        "ipinfo": "AS20001 Charter Communications Inc"
    },
    {
        "subver": "\/btcwire:0.5.0\/",
        "lat": "60.1695",
        "lon": "24.9354",
        "city": "Helsinki",
        "country": "FI",
        "ipinfo": "AS24940 Hetzner Online GmbH"
    },
    {
        "subver": "\/btcwire:0.5.0\/",
        "lat": "50.1155",
        "lon": "8.6842",
        "city": "Frankfurt am Main",
        "country": "DE",
        "ipinfo": "AS51167 Contabo GmbH"
    },
    {
        "subver": "\/btcwire:0.5.0\/",
        "lat": "50.1155",
        "lon": "8.6842",
        "city": "Frankfurt am Main",
        "country": "DE",
        "ipinfo": "AS51167 Contabo GmbH"
    },
    {
        "subver": "\/Shibetoshi:1.14.6\/",
        "lat": "39.1821",
        "lon": "-77.5359",
        "city": "Leesburg",
        "country": "US",
        "ipinfo": "AS701 Verizon Business"
    },
    {
        "subver": "\/btcwire:0.5.0\/",
        "lat": "60.1695",
        "lon": "24.9354",
        "city": "Helsinki",
        "country": "FI",
        "ipinfo": "AS24940 Hetzner Online GmbH"
    },
    {
        "subver": "\/btcwire:0.5.0\/",
        "lat": "50.1155",
        "lon": "8.6842",
        "city": "Frankfurt am Main",
        "country": "DE",
        "ipinfo": "AS51167 Contabo GmbH"
    },
    {
        "subver": "\/Shibetoshi:1.14.6\/",
        "lat": "51.5149",
        "lon": "7.4660",
        "city": "Dortmund",
        "country": "DE",
        "ipinfo": "AS24940 Hetzner Online GmbH"
    },
    {
        "subver": "\/Shibetoshi:1.14.6\/",
        "lat": "49.1166",
        "lon": "10.7597",
        "city": "Gunzenhausen",
        "country": "DE",
        "ipinfo": "AS24940 Hetzner Online GmbH"
    },
    {
        "subver": "\/btcwire:0.5.0\/",
        "lat": "60.1695",
        "lon": "24.9354",
        "city": "Helsinki",
        "country": "FI",
        "ipinfo": "AS24940 Hetzner Online GmbH"
    },
    {
        "subver": "\/Shibetoshi:1.14.2\/",
        "lat": "45.4737",
        "lon": "-73.5882",
        "city": "Montr\u00e9al",
        "country": "CA",
        "ipinfo": "AS16509 Amazon.com, Inc."
    },
    {
        "subver": "\/btcwire:0.5.0\/",
        "lat": "50.1155",
        "lon": "8.6842",
        "city": "Frankfurt am Main",
        "country": "DE",
        "ipinfo": "AS51167 Contabo GmbH"
    },
    {
        "subver": "\/btcwire:0.5.0\/",
        "lat": "50.1155",
        "lon": "8.6842",
        "city": "Frankfurt am Main",
        "country": "DE",
        "ipinfo": "AS51167 Contabo GmbH"
    },
    {
        "subver": "\/btcwire:0.5.0\/",
        "lat": "50.1155",
        "lon": "8.6842",
        "city": "Frankfurt am Main",
        "country": "DE",
        "ipinfo": "AS51167 Contabo GmbH"
    },
    {
        "subver": "\/btcwire:0.5.0\/",
        "lat": "60.1695",
        "lon": "24.9354",
        "city": "Helsinki",
        "country": "FI",
        "ipinfo": "AS24940 Hetzner Online GmbH"
    },
    {
        "subver": "\/btcwire:0.5.0\/",
        "lat": "50.1155",
        "lon": "8.6842",
        "city": "Frankfurt am Main",
        "country": "DE",
        "ipinfo": "AS51167 Contabo GmbH"
    },
    {
        "subver": "\/Shibetoshi:1.14.6\/",
        "lat": "33.5229",
        "lon": "-82.0852",
        "city": "Augusta",
        "country": "US",
        "ipinfo": "AS12083 WideOpenWest Finance LLC"
    },
    {
        "subver": "\/btcwire:0.5.0\/",
        "lat": "60.3540",
        "lon": "24.9794",
        "city": "Tuusula",
        "country": "FI",
        "ipinfo": "AS24940 Hetzner Online GmbH"
    },
    {
        "subver": "\/btcwire:0.5.0\/",
        "lat": "60.3540",
        "lon": "24.9794",
        "city": "Tuusula",
        "country": "FI",
        "ipinfo": "AS24940 Hetzner Online GmbH"
    },
    {
        "subver": "\/btcwire:0.5.0\/",
        "lat": "60.3540",
        "lon": "24.9794",
        "city": "Tuusula",
        "country": "FI",
        "ipinfo": "AS24940 Hetzner Online GmbH"
    },
    {
        "subver": "\/btcwire:0.5.0\/",
        "lat": "60.3540",
        "lon": "24.9794",
        "city": "Tuusula",
        "country": "FI",
        "ipinfo": "AS24940 Hetzner Online GmbH"
    },
    {
        "subver": "\/Shibetoshi:1.14.7\/",
        "lat": "48.5839",
        "lon": "7.7455",
        "city": "Strasbourg",
        "country": "FR",
        "ipinfo": "AS29066 Host Europe GmbH"
    },
    {
        "subver": "\/btcwire:0.5.0\/",
        "lat": "50.1155",
        "lon": "8.6842",
        "city": "Frankfurt am Main",
        "country": "DE",
        "ipinfo": "AS51167 Contabo GmbH"
    },
    {
        "subver": "\/btcwire:0.5.0\/",
        "lat": "50.1155",
        "lon": "8.6842",
        "city": "Frankfurt am Main",
        "country": "DE",
        "ipinfo": "AS51167 Contabo GmbH"
    },
    {
        "subver": "\/Shibetoshi:1.14.6\/",
        "lat": "49.1166",
        "lon": "10.7597",
        "city": "Gunzenhausen",
        "country": "DE",
        "ipinfo": "AS24940 Hetzner Online GmbH"
    },
    {
        "subver": "\/btcwire:0.5.0\/",
        "lat": "50.1155",
        "lon": "8.6842",
        "city": "Frankfurt am Main",
        "country": "DE",
        "ipinfo": "AS51167 Contabo GmbH"
    },
    {
        "subver": "\/btcwire:0.5.0\/",
        "lat": "50.1155",
        "lon": "8.6842",
        "city": "Frankfurt am Main",
        "country": "DE",
        "ipinfo": "AS51167 Contabo GmbH"
    },
    {
        "subver": "\/btcwire:0.5.0\/",
        "lat": "50.1155",
        "lon": "8.6842",
        "city": "Frankfurt am Main",
        "country": "DE",
        "ipinfo": "AS51167 Contabo GmbH"
    },
    {
        "subver": "\/Shibetoshi:1.14.6\/",
        "lat": "34.1121",
        "lon": "-118.2594",
        "city": "Los Angeles",
        "country": "US",
        "ipinfo": "AS20001 Charter Communications Inc"
    },
    {
        "subver": "\/btcwire:0.5.0\/",
        "lat": "50.1155",
        "lon": "8.6842",
        "city": "Frankfurt am Main",
        "country": "DE",
        "ipinfo": "AS51167 Contabo GmbH"
    },
    {
        "subver": "\/btcwire:0.5.0\/",
        "lat": "50.1155",
        "lon": "8.6842",
        "city": "Frankfurt am Main",
        "country": "DE",
        "ipinfo": "AS51167 Contabo GmbH"
    },
    {
        "subver": "\/Shibetoshi:1.14.6\/",
        "lat": "50.8505",
        "lon": "4.3488",
        "city": "Brussels",
        "country": "BE",
        "ipinfo": "AS6848 Telenet BVBA"
    },
    {
        "subver": "\/btcwire:0.5.0\/",
        "lat": "50.1155",
        "lon": "8.6842",
        "city": "Frankfurt am Main",
        "country": "DE",
        "ipinfo": "AS51167 Contabo GmbH"
    },
    {
        "subver": "\/Shibetoshi:1.14.6\/",
        "lat": "48.5839",
        "lon": "7.7455",
        "city": "Strasbourg",
        "country": "FR",
        "ipinfo": "AS16276 OVH SAS"
    },
    {
        "subver": "\/btcwire:0.5.0\/",
        "lat": "50.1155",
        "lon": "8.6842",
        "city": "Frankfurt am Main",
        "country": "DE",
        "ipinfo": "AS51167 Contabo GmbH"
    },
    {
        "subver": "\/Shibetoshi:1.14.6\/",
        "lat": "51.5085",
        "lon": "-0.1257",
        "city": "London",
        "country": "GB",
        "ipinfo": "AS16276 OVH SAS"
    },
    {
        "subver": "\/Shibetoshi:1.14.7\/",
        "lat": "40.7143",
        "lon": "-74.0060",
        "city": "New York City",
        "country": "US",
        "ipinfo": "AS40021 Contabo Inc."
    },
    {
        "subver": "\/btcwire:0.5.0\/",
        "lat": "50.1155",
        "lon": "8.6842",
        "city": "Frankfurt am Main",
        "country": "DE",
        "ipinfo": "AS51167 Contabo GmbH"
    },
    {
        "subver": "\/Shibetoshi:1.14.6\/",
        "lat": "38.8951",
        "lon": "-77.0364",
        "city": "Washington",
        "country": "US",
        "ipinfo": "AS396982 Google LLC"
    },
    {
        "subver": "\/btcwire:0.5.0\/",
        "lat": "60.3540",
        "lon": "24.9794",
        "city": "Tuusula",
        "country": "FI",
        "ipinfo": "AS24940 Hetzner Online GmbH"
    },
    {
        "subver": "\/btcwire:0.5.0\/",
        "lat": "60.3540",
        "lon": "24.9794",
        "city": "Tuusula",
        "country": "FI",
        "ipinfo": "AS24940 Hetzner Online GmbH"
    },
    {
        "subver": "\/btcwire:0.5.0\/",
        "lat": "50.1155",
        "lon": "8.6842",
        "city": "Frankfurt am Main",
        "country": "DE",
        "ipinfo": "AS51167 Contabo GmbH"
    },
    {
        "subver": "\/btcwire:0.5.0\/",
        "lat": "50.1155",
        "lon": "8.6842",
        "city": "Frankfurt am Main",
        "country": "DE",
        "ipinfo": "AS51167 Contabo GmbH"
    },
    {
        "subver": "\/btcwire:0.5.0\/",
        "lat": "60.3540",
        "lon": "24.9794",
        "city": "Tuusula",
        "country": "FI",
        "ipinfo": "AS24940 Hetzner Online GmbH"
    },
    {
        "subver": "\/Shibetoshi:1.14.5\/",
        "lat": "45.5102",
        "lon": "9.0870",
        "city": "Pero",
        "country": "IT",
        "ipinfo": "AS202870 Dimensione S.r.l."
    },
    {
        "subver": "\/btcwire:0.5.0\/",
        "lat": "50.1155",
        "lon": "8.6842",
        "city": "Frankfurt am Main",
        "country": "DE",
        "ipinfo": "AS51167 Contabo GmbH"
    },
    {
        "subver": "",
        "lat": "50.1155",
        "lon": "8.6842",
        "city": "Frankfurt am Main",
        "country": "DE",
        "ipinfo": "AS51167 Contabo GmbH"
    },
    {
        "subver": "",
        "lat": "22.5455",
        "lon": "114.0683",
        "city": "Shenzhen",
        "country": "CN",
        "ipinfo": "AS63612 Shenzhen Qianhai bird cloud computing Co. Ltd."
    },
    {
        "subver": "\/Shibetoshi:1.14.6\/",
        "lat": "45.9222",
        "lon": "12.3614",
        "city": "San Fior di Sopra",
        "country": "IT",
        "ipinfo": "AS12874 Fastweb SpA"
    },
    {
        "subver": "\/btcwire:0.5.0\/",
        "lat": "50.1155",
        "lon": "8.6842",
        "city": "Frankfurt am Main",
        "country": "DE",
        "ipinfo": "AS51167 Contabo GmbH"
    },
    {
        "subver": "\/btcwire:0.5.0\/",
        "lat": "50.1155",
        "lon": "8.6842",
        "city": "Frankfurt am Main",
        "country": "DE",
        "ipinfo": "AS51167 Contabo GmbH"
    },
    {
        "subver": "",
        "lat": "60.3540",
        "lon": "24.9794",
        "city": "Tuusula",
        "country": "FI",
        "ipinfo": "AS24940 Hetzner Online GmbH"
    },
    {
        "subver": "\/Shibetoshi:1.14.6\/",
        "lat": "-37.8374",
        "lon": "144.9282",
        "city": "Melbourne",
        "country": "AU",
        "ipinfo": "AS20473 The Constant Company, LLC"
    },
    {
        "subver": "\/Shibetoshi:1.14.6\/",
        "lat": "-37.8374",
        "lon": "144.9282",
        "city": "Melbourne",
        "country": "AU",
        "ipinfo": "AS20473 The Constant Company, LLC"
    },
    {
        "subver": "\/Shibetoshi:1.14.5\/",
        "lat": "43.4254",
        "lon": "-80.5112",
        "city": "Kitchener",
        "country": "CA",
        "ipinfo": "AS5645 TekSavvy Solutions, Inc."
    },
    {
        "subver": "\/Shibetoshi:1.14.4\/",
        "lat": "54.9924",
        "lon": "73.3686",
        "city": "Omsk",
        "country": "RU",
        "ipinfo": "AS42676 Joint Stock Company Smartkom"
    },
    {
        "subver": "\/btcwire:0.5.0\/",
        "lat": "50.1155",
        "lon": "8.6842",
        "city": "Frankfurt am Main",
        "country": "DE",
        "ipinfo": "AS51167 Contabo GmbH"
    },
    {
        "subver": "\/btcwire:0.5.0\/",
        "lat": "50.1155",
        "lon": "8.6842",
        "city": "Frankfurt am Main",
        "country": "DE",
        "ipinfo": "AS51167 Contabo GmbH"
    },
    {
        "subver": "\/Shibetoshi:1.14.6\/",
        "lat": "45.5088",
        "lon": "-73.5878",
        "city": "Montr\u00e9al",
        "country": "CA",
        "ipinfo": "AS16276 OVH SAS"
    },
    {
        "subver": "\/btcwire:0.5.0\/",
        "lat": "60.3540",
        "lon": "24.9794",
        "city": "Tuusula",
        "country": "FI",
        "ipinfo": "AS24940 Hetzner Online GmbH"
    },
    {
        "subver": "\/btcwire:0.5.0\/",
        "lat": "50.1155",
        "lon": "8.6842",
        "city": "Frankfurt am Main",
        "country": "DE",
        "ipinfo": "AS51167 Contabo GmbH"
    },
    {
        "subver": "\/btcwire:0.5.0\/",
        "lat": "50.1155",
        "lon": "8.6842",
        "city": "Frankfurt am Main",
        "country": "DE",
        "ipinfo": "AS51167 Contabo GmbH"
    },
    {
        "subver": "\/btcwire:0.5.0\/",
        "lat": "60.3540",
        "lon": "24.9794",
        "city": "Tuusula",
        "country": "FI",
        "ipinfo": "AS24940 Hetzner Online GmbH"
    },
    {
        "subver": "\/Shibetoshi:1.14.6\/",
        "lat": "49.1166",
        "lon": "10.7597",
        "city": "Gunzenhausen",
        "country": "DE",
        "ipinfo": "AS24940 Hetzner Online GmbH"
    },
    {
        "subver": "\/Shibetoshi:1.14.6\/",
        "lat": "49.1166",
        "lon": "10.7597",
        "city": "Gunzenhausen",
        "country": "DE",
        "ipinfo": "AS24940 Hetzner Online GmbH"
    },
    {
        "subver": "\/btcwire:0.5.0\/",
        "lat": "50.1155",
        "lon": "8.6842",
        "city": "Frankfurt am Main",
        "country": "DE",
        "ipinfo": "AS51167 Contabo GmbH"
    },
    {
        "subver": "\/btcwire:0.5.0\/",
        "lat": "50.1155",
        "lon": "8.6842",
        "city": "Frankfurt am Main",
        "country": "DE",
        "ipinfo": "AS51167 Contabo GmbH"
    },
    {
        "subver": "\/Shibetoshi:1.14.6\/",
        "lat": "39.3626",
        "lon": "-76.6100",
        "city": "Baltimore",
        "country": "US",
        "ipinfo": "AS33657 Comcast Cable Communications, LLC"
    },
    {
        "subver": "\/btcwire:0.5.0\/",
        "lat": "50.1155",
        "lon": "8.6842",
        "city": "Frankfurt am Main",
        "country": "DE",
        "ipinfo": "AS51167 Contabo GmbH"
    },
    {
        "subver": "\/Shibetoshi:1.14.6\/",
        "lat": "50.1155",
        "lon": "8.6842",
        "city": "Frankfurt am Main",
        "country": "DE",
        "ipinfo": "AS51167 Contabo GmbH"
    },
    {
        "subver": "\/Shibetoshi:1.14.6\/",
        "lat": "43.6330",
        "lon": "-116.2951",
        "city": "Boise",
        "country": "US",
        "ipinfo": "AS11492 CABLE ONE, INC."
    },
    {
        "subver": "\/Shibetoshi:1.14.4\/",
        "lat": "50.1155",
        "lon": "8.6842",
        "city": "Frankfurt am Main",
        "country": "DE",
        "ipinfo": "AS51167 Contabo GmbH"
    },
    {
        "subver": "\/btcwire:0.5.0\/",
        "lat": "50.1155",
        "lon": "8.6842",
        "city": "Frankfurt am Main",
        "country": "DE",
        "ipinfo": "AS51167 Contabo GmbH"
    },
    {
        "subver": "\/Shibetoshi:1.14.6(bitcore)\/",
        "lat": "43.6330",
        "lon": "-116.2951",
        "city": "Boise",
        "country": "US",
        "ipinfo": "AS11492 CABLE ONE, INC."
    },
    {
        "subver": "\/btcwire:0.5.0\/",
        "lat": "50.1155",
        "lon": "8.6842",
        "city": "Frankfurt am Main",
        "country": "DE",
        "ipinfo": "AS51167 Contabo GmbH"
    },
    {
        "subver": "\/Shibetoshi:1.14.6\/",
        "lat": "37.4283",
        "lon": "-121.9066",
        "city": "Milpitas",
        "country": "US",
        "ipinfo": "AS6939 Hurricane Electric LLC"
    },
    {
        "subver": "\/btcwire:0.5.0\/",
        "lat": "50.1155",
        "lon": "8.6842",
        "city": "Frankfurt am Main",
        "country": "DE",
        "ipinfo": "AS51167 Contabo GmbH"
    },
    {
        "subver": "\/btcwire:0.5.0\/",
        "lat": "50.1155",
        "lon": "8.6842",
        "city": "Frankfurt am Main",
        "country": "DE",
        "ipinfo": "AS51167 Contabo GmbH"
    },
    {
        "subver": "\/Shibetoshi:1.14.6\/",
        "lat": "52.2950",
        "lon": "4.9075",
        "city": "Ouderkerk aan de Amstel",
        "country": "NL",
        "ipinfo": "AS60144 3W Infra B.V."
    },
    {
        "subver": "\/Shibetoshi:1.14.7\/",
        "lat": "51.4767",
        "lon": "5.4956",
        "city": "Eindhoven",
        "country": "NL",
        "ipinfo": "AS207375 Fiber Operator B.V."
    },
    {
        "subver": "\/Shibetoshi:1.15.0\/",
        "lat": "52.2298",
        "lon": "21.0118",
        "city": "Warsaw",
        "country": "PL",
        "ipinfo": "AS212663 Remote Admin Sp. Z o.o."
    },
    {
        "subver": "\/blockchair.com\/dogecoin\/nodes\/",
        "lat": "52.3460",
        "lon": "4.8163",
        "city": "Amsterdam",
        "country": "NL",
        "ipinfo": "AS14061 DigitalOcean, LLC"
    },
    {
        "subver": "\/btcwire:0.5.0\/",
        "lat": "50.1155",
        "lon": "8.6842",
        "city": "Frankfurt am Main",
        "country": "DE",
        "ipinfo": "AS51167 Contabo GmbH"
    },
    {
        "subver": "\/btcwire:0.5.0\/",
        "lat": "50.1155",
        "lon": "8.6842",
        "city": "Frankfurt am Main",
        "country": "DE",
        "ipinfo": "AS51167 Contabo GmbH"
    },
    {
        "subver": "\/btcwire:0.5.0\/",
        "lat": "50.1155",
        "lon": "8.6842",
        "city": "Frankfurt am Main",
        "country": "DE",
        "ipinfo": "AS51167 Contabo GmbH"
    },
    {
        "subver": "\/Shibetoshi:1.14.6\/",
        "lat": "64.5739",
        "lon": "26.7669",
        "city": "Vaala",
        "country": "FI",
        "ipinfo": "AS24940 Hetzner Online GmbH"
    },
    {
        "subver": "\/Shibetoshi:1.14.6\/",
        "lat": "49.1166",
        "lon": "10.7597",
        "city": "Gunzenhausen",
        "country": "DE",
        "ipinfo": "AS24940 Hetzner Online GmbH"
    },
    {
        "subver": "\/Shibetoshi:1.14.6\/",
        "lat": "60.1695",
        "lon": "24.9354",
        "city": "Helsinki",
        "country": "FI",
        "ipinfo": "AS24940 Hetzner Online GmbH"
    },
    {
        "subver": "\/btcwire:0.5.0\/",
        "lat": "60.3540",
        "lon": "24.9794",
        "city": "Tuusula",
        "country": "FI",
        "ipinfo": "AS24940 Hetzner Online GmbH"
    },
    {
        "subver": "\/btcwire:0.5.0\/",
        "lat": "50.1155",
        "lon": "8.6842",
        "city": "Frankfurt am Main",
        "country": "DE",
        "ipinfo": "AS51167 Contabo GmbH"
    },
    {
        "subver": "\/btcwire:0.5.0\/",
        "lat": "60.3540",
        "lon": "24.9794",
        "city": "Tuusula",
        "country": "FI",
        "ipinfo": "AS24940 Hetzner Online GmbH"
    },
    {
        "subver": "\/Shibetoshi:1.14.6\/",
        "lat": "47.7611",
        "lon": "11.5589",
        "city": "Bad T\u00f6lz",
        "country": "DE",
        "ipinfo": "AS24940 Hetzner Online GmbH"
    },
    {
        "subver": "\/btcwire:0.5.0\/",
        "lat": "60.3540",
        "lon": "24.9794",
        "city": "Tuusula",
        "country": "FI",
        "ipinfo": "AS24940 Hetzner Online GmbH"
    },
    {
        "subver": "\/btcwire:0.5.0\/",
        "lat": "60.3540",
        "lon": "24.9794",
        "city": "Tuusula",
        "country": "FI",
        "ipinfo": "AS24940 Hetzner Online GmbH"
    },
    {
        "subver": "",
        "lat": "50.1155",
        "lon": "8.6842",
        "city": "Frankfurt am Main",
        "country": "DE",
        "ipinfo": "AS51167 Contabo GmbH"
    },
    {
        "subver": "\/btcwire:0.5.0\/",
        "lat": "60.3540",
        "lon": "24.9794",
        "city": "Tuusula",
        "country": "FI",
        "ipinfo": "AS24940 Hetzner Online GmbH"
    },
    {
        "subver": "\/Shibetoshi:1.14.7\/",
        "lat": "52.3888",
        "lon": "4.9062",
        "city": "Amsterdam",
        "country": "NL",
        "ipinfo": "AS57043 HOSTKEY B.V."
    },
    {
        "subver": "",
        "lat": "60.3540",
        "lon": "24.9794",
        "city": "Tuusula",
        "country": "FI",
        "ipinfo": "AS24940 Hetzner Online GmbH"
    },
    {
        "subver": "\/btcwire:0.5.0\/",
        "lat": "60.3540",
        "lon": "24.9794",
        "city": "Tuusula",
        "country": "FI",
        "ipinfo": "AS24940 Hetzner Online GmbH"
    },
    {
        "subver": "\/btcwire:0.5.0\/",
        "lat": "50.1155",
        "lon": "8.6842",
        "city": "Frankfurt am Main",
        "country": "DE",
        "ipinfo": "AS51167 Contabo GmbH"
    },
    {
        "subver": "\/btcwire:0.5.0\/",
        "lat": "60.3540",
        "lon": "24.9794",
        "city": "Tuusula",
        "country": "FI",
        "ipinfo": "AS24940 Hetzner Online GmbH"
    },
    {
        "subver": "\/btcwire:0.5.0\/",
        "lat": "60.3540",
        "lon": "24.9794",
        "city": "Tuusula",
        "country": "FI",
        "ipinfo": "AS24940 Hetzner Online GmbH"
    },
    {
        "subver": "",
        "lat": "60.3540",
        "lon": "24.9794",
        "city": "Tuusula",
        "country": "FI",
        "ipinfo": "AS24940 Hetzner Online GmbH"
    },
    {
        "subver": "\/btcwire:0.5.0\/",
        "lat": "60.3540",
        "lon": "24.9794",
        "city": "Tuusula",
        "country": "FI",
        "ipinfo": "AS24940 Hetzner Online GmbH"
    },
    {
        "subver": "\/Shibetoshi:1.14.5\/",
        "lat": "28.1761",
        "lon": "-80.5901",
        "city": "Satellite Beach",
        "country": "US",
        "ipinfo": "AS33363 Charter Communications, Inc"
    },
    {
        "subver": "\/btcwire:0.5.0\/",
        "lat": "50.1155",
        "lon": "8.6842",
        "city": "Frankfurt am Main",
        "country": "DE",
        "ipinfo": "AS51167 Contabo GmbH"
    },
    {
        "subver": "\/Shibetoshi:1.14.7\/",
        "lat": "39.0437",
        "lon": "-77.4875",
        "city": "Ashburn",
        "country": "US",
        "ipinfo": "AS14618 Amazon.com, Inc."
    },
    {
        "subver": "",
        "lat": "45.5583",
        "lon": "-73.5701",
        "city": "Montr\u00e9al",
        "country": "CA",
        "ipinfo": "AS62563 GLOBALTELEHOST Corp."
    },
    {
        "subver": "\/Shibetoshi:1.14.7\/",
        "lat": "35.6940",
        "lon": "139.7536",
        "city": "Tokyo",
        "country": "JP",
        "ipinfo": "AS16509 Amazon.com, Inc."
    },
    {
        "subver": "\/btcwire:0.5.0\/",
        "lat": "50.1155",
        "lon": "8.6842",
        "city": "Frankfurt am Main",
        "country": "DE",
        "ipinfo": "AS51167 Contabo GmbH"
    },
    {
        "subver": "\/Shibetoshi:1.14.6\/",
        "lat": "52.3083",
        "lon": "4.9425",
        "city": "Amsterdam",
        "country": "NL",
        "ipinfo": "AS399629 BL Networks"
    },
    {
        "subver": "\/Shibetoshi:1.14.7\/",
        "lat": "50.1155",
        "lon": "8.6842",
        "city": "Frankfurt am Main",
        "country": "DE",
        "ipinfo": "AS16509 Amazon.com, Inc."
    },
    {
        "subver": "\/btcwire:0.5.0\/",
        "lat": "60.3540",
        "lon": "24.9794",
        "city": "Tuusula",
        "country": "FI",
        "ipinfo": "AS24940 Hetzner Online GmbH"
    },
    {
        "subver": "\/Shibetoshi:1.14.6\/",
        "lat": "60.3540",
        "lon": "24.9794",
        "city": "Tuusula",
        "country": "FI",
        "ipinfo": "AS24940 Hetzner Online GmbH"
    },
    {
        "subver": "\/Shibetoshi:1.14.6\/",
        "lat": "59.5638",
        "lon": "150.8035",
        "city": "Magadan",
        "country": "RU",
        "ipinfo": "AS48441 Society with limited liability MagLAN"
    },
    {
        "subver": "\/btcwire:0.5.0\/",
        "lat": "60.3540",
        "lon": "24.9794",
        "city": "Tuusula",
        "country": "FI",
        "ipinfo": "AS24940 Hetzner Online GmbH"
    },
    {
        "subver": "\/Shibetoshi:1.14.7\/",
        "lat": "39.0437",
        "lon": "-77.4875",
        "city": "Ashburn",
        "country": "US",
        "ipinfo": "AS14618 Amazon.com, Inc."
    },
    {
        "subver": "\/btcwire:0.5.0\/",
        "lat": "50.1155",
        "lon": "8.6842",
        "city": "Frankfurt am Main",
        "country": "DE",
        "ipinfo": "AS51167 Contabo GmbH"
    },
    {
        "subver": "\/btcwire:0.5.0\/",
        "lat": "60.3540",
        "lon": "24.9794",
        "city": "Tuusula",
        "country": "FI",
        "ipinfo": "AS24940 Hetzner Online GmbH"
    },
    {
        "subver": "\/btcwire:0.5.0\/",
        "lat": "50.1155",
        "lon": "8.6842",
        "city": "Frankfurt am Main",
        "country": "DE",
        "ipinfo": "AS51167 Contabo GmbH"
    },
    {
        "subver": "\/Shibetoshi:1.14.6\/",
        "lat": "54.0813",
        "lon": "21.4955",
        "city": "Gier\u0142o\u017c",
        "country": "PL",
        "ipinfo": "AS33901 Connecta sp. z o.o."
    },
    {
        "subver": "\/btcwire:0.5.0\/",
        "lat": "60.3540",
        "lon": "24.9794",
        "city": "Tuusula",
        "country": "FI",
        "ipinfo": "AS24940 Hetzner Online GmbH"
    },
    {
        "subver": "\/Shibetoshi:1.14.3\/",
        "lat": "38.8858",
        "lon": "-94.5330",
        "city": "Grandview",
        "country": "US",
        "ipinfo": "AS7018 AT&T Services, Inc."
    },
    {
        "subver": "\/Shibetoshi:1.14.7(_catt)\/",
        "lat": "42.9784",
        "lon": "-78.7998",
        "city": "Amherst",
        "country": "US",
        "ipinfo": "AS701 Verizon Business"
    },
    {
        "subver": "\/btcwire:0.5.0\/",
        "lat": "60.3540",
        "lon": "24.9794",
        "city": "Tuusula",
        "country": "FI",
        "ipinfo": "AS24940 Hetzner Online GmbH"
    },
    {
        "subver": "\/btcwire:0.5.0\/",
        "lat": "50.1155",
        "lon": "8.6842",
        "city": "Frankfurt am Main",
        "country": "DE",
        "ipinfo": "AS51167 Contabo GmbH"
    },
    {
        "subver": "\/btcwire:0.5.0\/",
        "lat": "60.3540",
        "lon": "24.9794",
        "city": "Tuusula",
        "country": "FI",
        "ipinfo": "AS24940 Hetzner Online GmbH"
    },
    {
        "subver": "\/btcwire:0.5.0\/",
        "lat": "50.1155",
        "lon": "8.6842",
        "city": "Frankfurt am Main",
        "country": "DE",
        "ipinfo": "AS51167 Contabo GmbH"
    },
    {
        "subver": "\/btcwire:0.5.0\/",
        "lat": "50.1155",
        "lon": "8.6842",
        "city": "Frankfurt am Main",
        "country": "DE",
        "ipinfo": "AS51167 Contabo GmbH"
    },
    {
        "subver": "\/Shibetoshi:1.14.7\/",
        "lat": "50.1155",
        "lon": "8.6842",
        "city": "Frankfurt am Main",
        "country": "DE",
        "ipinfo": "AS16509 Amazon.com, Inc."
    },
    {
        "subver": "\/btcwire:0.5.0\/",
        "lat": "60.3540",
        "lon": "24.9794",
        "city": "Tuusula",
        "country": "FI",
        "ipinfo": "AS24940 Hetzner Online GmbH"
    },
    {
        "subver": "\/Shibetoshi:1.14.6\/",
        "lat": "60.3540",
        "lon": "24.9794",
        "city": "Tuusula",
        "country": "FI",
        "ipinfo": "AS24940 Hetzner Online GmbH"
    },
    {
        "subver": "\/Shibetoshi:1.14.7\/",
        "lat": "42.9993",
        "lon": "-88.2196",
        "city": "Waukesha",
        "country": "US",
        "ipinfo": "AS10796 Charter Communications Inc"
    },
    {
        "subver": "\/Shibetoshi:1.14.6\/",
        "lat": "32.3736",
        "lon": "-86.1833",
        "city": "Montgomery",
        "country": "US",
        "ipinfo": "AS20115 Charter Communications"
    },
    {
        "subver": "\/Shibetoshi:1.14.5\/",
        "lat": "48.8534",
        "lon": "2.3488",
        "city": "Paris",
        "country": "FR",
        "ipinfo": "AS12322 Free SAS"
    },
    {
        "subver": "\/Shibetoshi:1.14.6\/",
        "lat": "44.9466",
        "lon": "-93.2862",
        "city": "Minneapolis",
        "country": "US",
        "ipinfo": "AS7922 Comcast Cable Communications, LLC"
    },
    {
        "subver": "\/btcwire:0.5.0\/",
        "lat": "50.1155",
        "lon": "8.6842",
        "city": "Frankfurt am Main",
        "country": "DE",
        "ipinfo": "AS51167 Contabo GmbH"
    },
    {
        "subver": "\/btcwire:0.5.0\/",
        "lat": "60.3540",
        "lon": "24.9794",
        "city": "Tuusula",
        "country": "FI",
        "ipinfo": "AS24940 Hetzner Online GmbH"
    },
    {
        "subver": "\/btcwire:0.5.0\/",
        "lat": "50.1155",
        "lon": "8.6842",
        "city": "Frankfurt am Main",
        "country": "DE",
        "ipinfo": "AS51167 Contabo GmbH"
    },
    {
        "subver": "\/btcwire:0.5.0\/",
        "lat": "60.3540",
        "lon": "24.9794",
        "city": "Tuusula",
        "country": "FI",
        "ipinfo": "AS24940 Hetzner Online GmbH"
    },
    {
        "subver": "\/btcwire:0.5.0\/",
        "lat": "60.3540",
        "lon": "24.9794",
        "city": "Tuusula",
        "country": "FI",
        "ipinfo": "AS24940 Hetzner Online GmbH"
    },
    {
        "subver": "",
        "lat": "50.1155",
        "lon": "8.6842",
        "city": "Frankfurt am Main",
        "country": "DE",
        "ipinfo": "AS51167 Contabo GmbH"
    },
    {
        "subver": "\/Shibetoshi:1.14.7\/",
        "lat": "1.3245",
        "lon": "103.8855",
        "city": "Singapore",
        "country": "SG",
        "ipinfo": "AS55430 Starhub Ltd"
    },